"Date","Area","OSgrid","longitude","latitude","Alt","Aspect","Incline","Location","Obs","FAH","OAH","Air.Temp","Wind.Dir","Wind.Speed","Cloud","Precip.Code","Drift","Total.Snow.Depth","Foot.Pen","Ski.Pen","Rain.at.900","Summit.Air.Temp","Summit.Wind.Dir","Summit.Wind.Speed","Max.Temp.Grad","Max.Hardness.Grad","No.Settle","Snow.Index","Insolation","Crystals","Wetness","AV.Cat","Snow.Temp"
2009-12-17 12:30:00,"Creag Meagaidh","NN460901",-0.39189816138468,2.22330931290461,"800",160,28,"Cairn Liath","WS","Moderate","Moderate","-3.2",45,10,90,"2 - Trace","1",45,0,NA,0,NA,NA,NA,20,4,NA,NA,NA,NA,NA,NA,NA
2009-12-18 13:15:00,"Creag Meagaidh","NN442895",-0.397317043264217,2.20705087730541,"890",100,32,"Lifa Gully, Coire Chriochairein","TR","Considerable -","Considerable +","-2.5",340,30,100,"4 - Light Showers","1",40,10,NA,0,NA,NA,NA,8,2,NA,NA,NA,NA,NA,NA,NA
2009-12-19 13:15:00,"Creag Meagaidh","NN448897",-0.395510783019325,2.21247037404101,"",NA,NA,"Wall gully,Coire Chreiochairein","TR","Considerable +","High","-5",NA,35,100,"8 - Snow","1",65,33,NA,0,NA,NA,NA,18,2,NA,NA,NA,NA,NA,NA,NA
2009-12-20 12:50:00,"Creag Meagaidh","NN463900",-0.392791806913748,2.22602223436141,"890",130,39,"Balloon Gully","TR","Considerable +","Considerable +","-2",270,25,60,"6 - Snow Showers","1",75,50,NA,0,NA,NA,NA,5,2,NA,NA,NA,NA,NA,NA,NA
2009-12-21 13:05:00,"Creag Meagaidh","NN452899",-0.393707653111883,2.21608230132937,"900",100,33,"Min Window","TR & OR","Considerable -","Considerable -","-2.6",NA,5,90,"0 - None","1",80,70,25,0,NA,NA,NA,10,2,NA,NA,NA,NA,NA,NA,NA
2009-12-22 12:40:00,"Creag Meagaidh","NN460883",-0.408069634903086,2.2233379721022,"730",155,31,"Sron a Ghoire","TR & JR","Considerable -","Considerable -","-7.8",NA,0,0,"0 - None","0",64,42,30,0,NA,NA,NA,43,2,NA,NA,NA,NA,NA,NA,NA
2009-12-23 13:05:00,"Creag Meagaidh","NN459882",-0.408969633169815,2.22243577251405,"700",150,35,"Bumslide Gully, Sron aGhoire","TR & JR","Considerable -","Considerable +","-0.5",NA,3,100,"2 - Trace","1",60,50,20,0,NA,NA,NA,4,2,NA,NA,NA,NA,NA,NA,NA
2009-12-24 13:15:00,"Creag Meagaidh","NN461877",-0.413458597568364,2.22425127543076,"800",130,25,"Sron a Ghoire","WS + AS","High","Considerable -","-3",NA,NA,10,"","0",52,50,NA,0,NA,NA,NA,18,3,NA,NA,NA,NA,NA,NA,NA
2009-12-25 14:00:00,"Creag Meagaidh","NN446892",-0.400005966984999,2.21067074240642,"600",190,20,"Coire a Chriochairein","WS /FS","Considerable -","Considerable -","-1",45,5,2,"4 - Light Showers","1",41,40,NA,0,NA,NA,NA,34,3,NA,NA,NA,NA,NA,NA,NA
2009-12-26 13:45:00,"Creag Meagaidh","NN460883",-0.408069634903086,2.2233379721022,"600",120,28,"Sron A Ghoire","WS /AS","Considerable -","Moderate","-2",45,2,20,"0 - None","0",42,30,NA,0,NA,NA,NA,17,3,NA,NA,NA,NA,NA,NA,NA
2009-12-27 13:15:00,"Creag Meagaidh","NN441870",-0.419778890362634,2.20618646636226,"950",170,25,"Creag Mhor Ridge","WS /FS","Considerable +","Moderate","-2.3",45,10,90,"2 - Trace","1",80,35,NA,0,NA,NA,NA,12,3,NA,NA,NA,NA,NA,NA,NA
2009-12-28 13:30:00,"Creag Meagaidh","NN486901",-0.391856664191738,2.24680743900848,"600",130,30,"Coire nan Gall","WS","Considerable +","Moderate","-2.4",NA,NA,20,"0 - None","0",45,30,NA,0,NA,NA,NA,32,4,NA,NA,NA,NA,NA,NA,NA
2009-12-29 13:30:00,"Creag Meagaidh","NN445897",-0.39551551321331,2.20975904303277,"860",170,33,"Back wall. Coire Chriochairein","TR","Considerable +","High","-5",360,10,100,"2 - Trace","1",75,28,20,0,NA,NA,NA,13,2,NA,NA,NA,NA,NA,NA,NA
2009-12-30 12:45:00,"Creag Meagaidh","NN448860",-0.428752224736258,2.21252872424855,"700",218,30,"Creag Mhor Ridge","TR","High","High","-2",90,35,100,"4 - Light Showers","1",76,50,25,0,NA,NA,NA,3,2,NA,NA,NA,NA,NA,NA,NA
2009-12-31 14:00:00,"Creag Meagaidh","NN463897",-0.395487044829155,2.22602702743673,"700",200,34,"Below Min indow","WS / AS","High","High","-2.5",20,10,70,"4 - Light Showers","1",54,45,NA,0,NA,NA,NA,32,2,NA,NA,NA,NA,NA,NA,NA
2010-01-01 13:30:00,"Creag Meagaidh","NN474888",-0.403555347224128,2.2359829852213,"600",180,32,"Na Cnapanan","WS / TR","High","High","-1",45,20,100,"6 - Snow Showers","1",45,40,NA,0,NA,NA,NA,10,2,NA,NA,NA,NA,NA,NA,NA
2010-01-02 14:10:00,"Creag Meagaidh","NN445898",-0.394617109721387,2.20975745757351,"985",220,30,"Coire a Chriochairein","WS /FS","High","Considerable +","-6",150,5,2,"","1",71,20,NA,0,NA,NA,NA,16,2,NA,NA,NA,NA,NA,NA,NA
2010-01-03 13:45:00,"Creag Meagaidh","NN444895",-0.397313896490436,2.20885843399087,"800",110,37,"lifa Gully, Coire Chriochairein","TR","High","Considerable +","-2.4",360,10,90,"2 - Trace","0",70,40,25,0,NA,NA,NA,15,2,NA,NA,NA,NA,NA,NA,NA
2010-01-04 13:30:00,"Creag Meagaidh","NN472898",-0.394574313928628,2.23415941516877,"860",135,34,"Carn Liath","TR","High","High","-4",360,10,100,"2 - Trace","0",87,23,15,0,NA,NA,NA,20,2,NA,NA,NA,NA,NA,NA,NA
2010-01-05 13:45:00,"Creag Meagaidh","NN468897",-0.395479099794557,2.23054591129061,"850",190,30,"Cairn Liath","WS /AS","High","Considerable +","-3.4",15,35,100,"8 - Snow","1",105,34,NA,0,NA,NA,NA,9,3,NA,NA,NA,NA,NA,NA,NA
2010-01-06 13:30:00,"Creag Meagaidh","NN476887",-0.404450593664851,2.23779215025118,"600",180,30,"Na Cnapanan","TR","Considerable -","Considerable -","-2",NA,5,0,"0 - None","0",75,50,25,0,NA,NA,NA,13,1,NA,NA,NA,NA,NA,NA,NA
2010-01-07 14:00:00,"Creag Meagaidh","NN471899",-0.393677490346077,2.23325403623452,"860",150,27,"Cairn Liath South Slopes","WS /AS","","Considerable -","-4",25,5,10,"0 - None","0",70,30,NA,0,NA,NA,NA,10,2,NA,NA,NA,NA,NA,NA,NA
2010-01-08 14:00:00,"Creag Meagaidh","NN445895",-0.397312322135122,2.20976221231539,"790",115,31,"Coire Chriochairein","TR","Considerable -","Considerable -","-4.5",NA,10,0,"0 - None","1",70,30,25,0,NA,NA,NA,15,2,NA,NA,NA,NA,NA,NA,NA
2010-01-09 13:00:00,"Creag Meagaidh","NN470895",-0.397272753421442,2.23235666646568,"800",194,31,"Carn Liath","TR","Considerable -","Moderate","-2.5",90,10,95,"4 - Light Showers","1",70,30,10,0,NA,NA,NA,11,3,NA,NA,NA,NA,NA,NA,NA
2010-01-10 14:15:00,"Creag Meagaidh","NN461901",-0.391896573426273,2.22421308713899,"920",290,28,"Cairn Liath Sharks Gultch","WS /AS","Considerable +","Considerable -","-5.6",45,20,5,"","1",100,20,NA,0,NA,NA,NA,22,3,NA,NA,NA,NA,NA,NA,NA
2010-01-11 13:15:00,"Creag Meagaidh","NN472888",-0.403558525060482,2.23417542020049,"600",270,39,"Na Cnapanan","WS/AS","Considerable -","Considerable -","-0.6",90,20,90,"2 - Trace","1",77,37,NA,0,NA,NA,NA,6,2,NA,NA,NA,NA,NA,NA,NA
2010-01-12 12:45:00,"Creag Meagaidh","NN451893",-0.399099680462187,2.21518805688788,"600",200,24,"Boundary Wall , Coire a Chriochairein","WS /FS","Considerable -","Considerable +","-0.1",120,30,100,"4 - Light Showers","1",110,30,NA,0,NA,NA,NA,7,3,NA,NA,NA,NA,NA,NA,NA
2010-01-13 13:00:00,"Creag Meagaidh","NN476887",-0.404450593664851,2.23779215025118,"600",260,32,"Na Cnapanan","TR","Considerable -","Considerable -","-2",150,30,100,"4 - Light Showers","1",80,30,15,0,NA,NA,NA,0,1,NA,NA,NA,NA,NA,NA,NA
2010-01-14 13:40:00,"Creag Meagaidh","NN456883",-0.408075941030393,2.21972282839781,"800",300,35,"Sron a Ghoire","WS /FS","High","High","-1.2",150,5,100,"4 - Light Showers","1",170,35,NA,0,NA,NA,NA,3,3,NA,NA,NA,NA,NA,NA,NA
2010-01-15 13:30:00,"Creag Meagaidh","NN432885",-0.406316751426432,2.19802882268582,"780",360,37,"Wee Gutter, Inner Coire of Coire Ardair","TR","High","Considerable -","1.7",180,30,100,"4 - Light Showers","1",80,40,20,1,NA,NA,NA,3,1,NA,NA,NA,NA,NA,NA,NA
2010-01-16 13:30:00,"Creag Meagaidh","NN462898",-0.394590219158853,2.22512165413581,"830",220,32,"Balloon Gully","TR","Considerable -","Moderate","2",190,25,100,"2 - Trace","0",87,32,7,1,NA,NA,NA,2,1,NA,NA,NA,NA,NA,NA,NA
2010-01-17 13:30:00,"Creag Meagaidh","NN462882",-0.408964900388577,2.22514713213791,"600",100,30,"Sron a Ghoire","WS /FS","Considerable +","Moderate","2",180,5,90,"","0",29,20,NA,1,NA,NA,NA,0,3,NA,NA,NA,NA,NA,NA,NA
2010-01-18 12:45:00,"Creag Meagaidh","NN464895",-0.397282286714566,2.22693399816647,"600",130,30,"Balloon Gully","WS","Moderate","Moderate","3.5",300,20,80,"2 - Trace","1",40,30,NA,0,NA,NA,NA,0,2,NA,NA,NA,NA,NA,NA,NA
2010-01-19 12:30:00,"Creag Meagaidh","NN475893",-0.399061635482527,2.23687876237628,"600",280,30,"Na Cnapanan","WS","Moderate","Moderate","0.2",165,20,80,"0 - None","1",NA,2,NA,0,NA,NA,NA,0,2,NA,NA,NA,NA,NA,NA,NA
2010-01-20 13:00:00,"Creag Meagaidh","NN459871",-0.418852304017603,2.22245318583185,"600",100,35,"Creag Bheag, Sron a Ghoire","WS","Moderate","Moderate","0.2",165,30,100,"2 - Trace","1",30,2,NA,0,NA,NA,NA,2,3,NA,NA,NA,NA,NA,NA,NA
2010-01-21 13:25:00,"Creag Meagaidh","NN455882",-0.40897593454623,2.21882062617796,"840",350,33,"NE gullies , Sron a Ghoire","TR","Considerable +","Considerable -","-1.9",145,35,100,"4 - Light Showers","1",74,20,NA,0,NA,NA,NA,6,1,NA,NA,NA,NA,NA,NA,NA
2010-01-22 13:45:00,"Creag Meagaidh","NN446875",-0.415278988938606,2.21069757641067,"970",360,36,"Top of headwall. Corrie Gamhna","TR","Considerable -","Considerable -","0",165,5,90,"2 - Trace","0",80,22,9,0,NA,NA,NA,6,3,NA,NA,NA,NA,NA,NA,NA
2010-01-23 13:35:00,"Creag Meagaidh","NN463902",-0.390994984870261,2.22601903623132,"930",320,31,"Uinneag Coire a Chaorainn","TR","Considerable -","Considerable -","-0.7",45,25,100,"4 - Light Showers","1",100,25,12,0,NA,NA,NA,14,2,NA,NA,NA,NA,NA,NA,NA
2010-01-24 13:00:00,"Creag Meagaidh","NN462899",-0.39369180706625,2.22512005709334,"870",220,41,"Balloon Gully, Coire Ardair","TR","Moderate","Moderate","-2",80,15,90,"4 - Light Showers","1",74,22,NA,0,NA,NA,NA,15,3,NA,NA,NA,NA,NA,NA,NA
2010-01-25 13:45:00,"Creag Meagaidh","NN445398",-0.843894847727095,2.21048212280908,"930",200,40,"Carrie's Gully, Creag Mhor ridge","TR","Considerable -","Moderate","-3.8",200,25,100,"0 - None","1",61,25,NA,0,NA,NA,NA,13,3,NA,NA,NA,NA,NA,NA,NA
2010-01-26 13:30:00,"Creag Meagaidh","NN433880",-0.410807223562914,2.19894045528512,"850",45,37,"Botom of Easy Gully, Coire Ardair","TR","Considerable -","Considerable -","5",180,25,100,"0 - None","0",65,13,NA,1,NA,NA,NA,6,3,NA,NA,NA,NA,NA,NA,NA
2010-01-27 14:00:00,"Creag Meagaidh","NN433864",-0.425181838051137,2.19896547661647,"870",20,30,"Above Lochain Coire Choile Rais","TR","Considerable +","Moderate","8",270,35,100,"0 - None","0",80,20,NA,1,NA,NA,NA,3,2,NA,NA,NA,NA,NA,NA,NA
2010-01-28 12:30:00,"Creag Meagaidh","NN454880",-0.41077434630598,2.2179200041035,"880",110,37,"Bealach a Ghoire","TR & WS","Considerable -","Considerable +","-1",320,30,100,"2 - Trace","1",80,12,NA,0,NA,NA,NA,3,1,NA,NA,NA,NA,NA,NA,NA
2010-01-29 12:45:00,"Creag Meagaidh","NN448898",-0.394612377900246,2.21246878663457,"910",160,34,"Wall Gully, Coire Chriochairein","TR & WS","Considerable +","Considerable -","-4.9",350,35,90,"6 - Snow Showers","1",60,30,NA,0,NA,NA,NA,15,3,NA,NA,NA,NA,NA,NA,NA
2010-01-30 13:25:00,"Creag Meagaidh","NN443895",-0.397315470200133,2.20795465565421,"850",100,41,"LLifa Gully, Coire Chriochairein","TR","Considerable +","Considerable -","-5",320,25,50,"6 - Snow Showers","1",100,31,NA,0,NA,NA,NA,24,2,NA,NA,NA,NA,NA,NA,NA
2010-01-31 13:50:00,"Creag Meagaidh","NN450901",-0.39191400538514,2.21427156988895,"950",170,33,"The Min Window","TR","Considerable -","High","-5",320,35,80,"4 - Light Showers","1",70,31,NA,0,NA,NA,NA,12,2,NA,NA,NA,NA,NA,NA,NA
2010-02-01 13:30:00,"Creag Meagaidh","NN454879",-0.411672766280803,2.21792158555253,"870",80,31,"Bealach a Ghoire","TR","Considerable +","Considerable -","-2.1",250,25,100,"8 - Snow","1",80,40,NA,0,NA,NA,NA,17,2,NA,NA,NA,NA,NA,NA,NA
2010-02-02 16:30:00,"Creag Meagaidh","NN427885",-0.406324547851745,2.19350989778608,"900",100,34,"The Window","TR","Considerable -","Considerable -","-2.8",350,30,20,"2 - Trace","1",100,40,NA,0,NA,NA,NA,6,1,NA,NA,NA,NA,NA,NA,NA
2010-02-03 13:10:00,"Creag Meagaidh","NN450899",-0.393710814562702,2.21427475003013,"900",120,30,"Min Window","KM","Considerable +","Considerable +","-4.8",140,10,100,"0 - None","0",205,30,NA,0,NA,NA,NA,22,1,NA,NA,NA,NA,NA,NA,NA
2010-02-04 13:05:00,"Creag Meagaidh","NN448897",-0.395510783019325,2.21247037404101,"910",90,33,"Wall Gully, Coire Chriochairein","TR","Considerable -","Considerable -","0.5",190,15,20,"8 - Snow","1",120,40,NA,0,NA,NA,NA,18,2,NA,NA,NA,NA,NA,NA,NA
2010-02-05 11:00:00,"Creag Meagaidh","NN426885",-0.406326105206718,2.19260611276995,"960",300,29,"The Window. Summit","TR","Moderate","Moderate","1",145,35,100,"4 - Light Showers","0",80,28,NA,0,NA,NA,NA,6,2,NA,NA,NA,NA,NA,NA,NA
2010-02-06 13:15:00,"Creag Meagaidh","NN463895",-0.397283873336949,2.2260302200737,"750",220,35,"Cairn Liath","WS","Moderate","Moderate","1.5",90,10,100,"","0",30,15,NA,0,NA,NA,NA,0,3,NA,NA,NA,NA,NA,NA,NA
2010-02-07 13:15:00,"Creag Meagaidh","NN448895",-0.397307595195466,2.21247354721599,"750",160,30,"Coire a Chriochairein","WS","Moderate","Moderate","0",90,5,100,"","0",62,5,NA,0,NA,NA,NA,3,2,NA,NA,NA,NA,NA,NA,NA
2010-02-08 13:30:00,"Creag Meagaidh","NN460870",-0.419749162079247,2.22335855985471,"600",100,30,"Col Creag Bheag","WS","Moderate","Moderate","-0.1",110,5,90,"","0",58,0,NA,0,NA,NA,NA,2,1,NA,NA,NA,NA,NA,NA,NA
2010-02-09 14:00:00,"Creag Meagaidh","NN434887",-0.404516818435081,2.19983324840749,"800",160,35,"Poite Coire Ardair","WS","Moderate","Moderate","0",45,15,70,"","1",NA,12,NA,0,NA,NA,NA,14,4,NA,NA,NA,NA,NA,NA,NA
2010-02-10 14:00:00,"Creag Meagaidh","NN495918",-0.376569005200156,2.25491378575533,"900",160,25,"Coire Dubh","WS","Moderate","Moderate","-2.8",280,5,70,"2 - Trace","1",NA,5,NA,0,-4,NA,NA,7,3,NA,NA,NA,NA,NA,NA,NA
2010-02-11 14:00:00,"Creag Meagaidh","NN448898",-0.394612377900246,2.21246878663457,"930",110,39,"Boundary Wall Gully. Coire Chriochairein","TR","Moderate","Considerable -","-1.5",350,10,100,"2 - Trace","0",70,30,NA,0,NA,NA,NA,12,3,NA,NA,NA,NA,NA,NA,NA
2010-02-12 14:00:00,"Creag Meagaidh","NN426886",-0.405427704236029,2.19260454613549,"93",175,33,"The Window","TR","Moderate","Moderate","-1.9",360,18,50,"4 - Light Showers","1",50,25,NA,0,NA,NA,NA,8,3,NA,NA,NA,NA,NA,NA,NA
2010-02-13 11:05:00,"Creag Meagaidh","NN462899",-0.39369180706625,2.22512005709334,"870",170,41,"Top of Balloon Gully","TR","Considerable -","Moderate","-1.1",350,7,100,"2 - Trace","0",102,27,NA,0,NA,NA,NA,17,1,NA,NA,NA,NA,NA,NA,NA
2010-02-14 13:40:00,"Creag Meagaidh","NN426885",-0.406326105206718,2.19260611276995,"950",10,35,"The Window","KM","Considerable +","Considerable -","0.4",280,10,100,"4 - Light Showers","0",135,10,NA,1,NA,NA,NA,7,2,NA,NA,NA,NA,NA,NA,NA
2010-02-15 12:50:00,"Creag Meagaidh","NN451900",-0.392810828705131,2.21517693523895,"920",100,35,"Min Window","KM","Considerable +","Considerable +","-2.1",270,15,80,"6 - Snow Showers","1",105,30,NA,0,NA,NA,NA,13,2,NA,NA,NA,NA,NA,NA,NA
2010-02-16 12:45:00,"Creag Meagaidh","NN427886",-0.405426146343092,2.19350833050526,"900",85,32,"Wee Gutter, the Inner Corrie","TR","High","High","-2",90,5,100,"6 - Snow Showers","1",80,32,NA,0,NA,NA,NA,11,3,NA,NA,NA,NA,NA,NA,NA
2010-02-17 12:45:00,"Creag Meagaidh","NN447897",-0.395512360396719,2.21156659705043,"860",220,39,"Backwall Coire Chriochairein","TR, WS","Considerable +","Considerable -","-3.5",100,7,60,"8 - Snow","1",100,52,NA,0,NA,NA,NA,27,2,NA,NA,NA,NA,NA,NA,NA
2010-02-18 13:20:00,"Creag Meagaidh","NN442870",-0.41977733147674,2.20709026086592,"950",240,40,"Creag Mhor Ridge","TR & WS","Considerable -","Considerable -","-3.1",0,5,0,"0 - None","0",70,44,23,0,NA,NA,NA,15,3,NA,NA,NA,NA,NA,NA,NA
2010-02-19 14:00:00,"Creag Meagaidh","NN485906",-0.387366160974952,2.24589559134363,"910",50,42,"No.2 Gully, Coire nan Gall","TR","Considerable -","Considerable -","-5",45,15,50,"0 - None","0",80,25,20,0,NA,NA,NA,17,3,NA,NA,NA,NA,NA,NA,NA
2010-02-20 14:00:00,"Creag Meagaidh","NN425886",-0.405429261485384,2.19170076175367,"940",360,37,"The Window - snowholes site","TR","Considerable -","Considerable -","-8",0,0,0,"0 - None","0",110,42,NA,0,NA,NA,NA,80,2,NA,NA,NA,NA,NA,NA,NA
2010-02-21 13:10:00,"Creag Meagaidh","NN463900",-0.392791806913748,2.22602223436141,"860",160,39,"Top of Balloon Gully","TR","Considerable -","Considerable -","-3",175,11,0,"0 - None","0",90,40,NA,0,NA,NA,NA,24,3,NA,NA,NA,NA,NA,NA,NA
2010-02-22 13:15:00,"Creag Meagaidh","NN453877",-0.41347117853107,2.21702095695661,"850",60,32,"Bealach a Ghoire","TR","Considerable -","Considerable -","-7",220,5,0,"0 - None","0",60,35,25,0,NA,NA,NA,21,4,NA,NA,NA,NA,NA,NA,NA
2010-02-23 13:05:00,"Creag Meagaidh","NN459882",-0.408969633169815,2.22243577251405,"800",125,42,"Top of NE ridge of Sron a Ghoire","TR","High","High","-1",170,10,0,"0 - None","0",50,12,NA,0,NA,NA,NA,10,3,NA,NA,NA,NA,NA,NA,NA
2010-02-24 14:00:00,"Creag Meagaidh","NN451900",-0.392810828705131,2.21517693523895,"930",300,31,"The Min Window","TR","High","High","-4.7",130,45,100,"6 - Snow Showers","1",60,50,NA,0,NA,NA,NA,7,3,NA,NA,NA,NA,NA,NA,NA
2010-02-25 13:00:00,"Creag Meagaidh","NN475887",-0.404452183644475,2.23688836712465,"610",260,32,"Na Cnapanan","TR","High","High","-2.5",70,35,100,"10 - Heavy Snow","1",100,90,NA,0,NA,NA,NA,2,4,NA,NA,NA,NA,NA,NA,NA
2010-02-26 13:10:00,"Creag Meagaidh","NN475887",-0.404452183644475,2.23688836712465,"610",190,30,"Na Cnapanan","TR","High","High","-1",45,35,100,"8 - Snow","1",111,50,NA,0,NA,NA,NA,6,3,NA,NA,NA,NA,NA,NA,NA
2010-02-27 12:45:00,"Creag Meagaidh","NN467892",-0.399972777135066,2.229650124985,"550",140,28,"Coire Ardair- below Na Canapan","TR","High","High","-0.5",90,20,80,"0 - None","1",74,50,NA,0,NA,NA,NA,5,4,NA,NA,NA,NA,NA,NA,NA
2010-02-28 13:30:00,"Creag Meagaidh","NN455883",-0.408077515954785,2.2188190424412,"800",300,39,"NE Gullies. Sron a Ghoire","WS & TR","High","High","-2.4",45,10,10,"0 - None","1",90,27,12,0,NA,NA,NA,5,4,NA,NA,NA,NA,NA,NA,NA
2010-03-01 12:50:00,"Creag Meagaidh","NN472895",-0.397269570491756,2.23416422246725,"700",230,39,"Col between Carn Liath & Na Cnapanan","TR","High","High","0",360,10,10,"0 - None","1",90,35,9,0,NA,NA,NA,20,4,NA,NA,NA,NA,NA,NA,NA
2010-03-02 13:05:00,"Creag Meagaidh","NN461893",-0.39908387355182,2.22422585169799,"500",265,25,"Base of Balloon Gully","TR","High","High","1",NA,2,0,"0 - None","0",100,31,5,0,NA,NA,NA,31,3,NA,NA,NA,NA,NA,NA,NA
2010-03-03 13:10:00,"Creag Meagaidh","NN471895",-0.397271162279433,2.23326044447261,"750",230,34,"SW flank Carn Liath - test pit site","TR","Considerable +","Considerable -","1.5",145,3,40,"0 - None","0",120,15,5,0,NA,NA,NA,23,3,NA,NA,NA,NA,NA,NA,NA
2010-03-04 13:25:00,"Creag Meagaidh","NN416852",-0.435989057863778,2.18361944527972,"800",272,27,"Moy Corrie","TR","High","Considerable -","2",270,2,60,"0 - None","0",220,5,1,0,NA,NA,NA,63,3,NA,NA,NA,NA,NA,NA,NA
2010-03-05 13:35:00,"Creag Meagaidh","NN448896",-0.396409188784473,2.21247196090149,"890",195,32,"Boundary Wall Gully","TR","Considerable -","Considerable -","0",330,35,100,"6 - Snow Showers","1",95,40,NA,1,NA,NA,NA,6,3,NA,NA,NA,NA,NA,NA,NA
2010-03-06 13:05:00,"Creag Meagaidh","NN444895",-0.397313896490436,2.20885843399087,"860",100,37,"Lifa Gully. Coire Chriochairein","TR/WS","Considerable -","Considerable -","3",NA,3,100,"0 - None","0",85,33,NA,0,NA,NA,NA,8,2,NA,NA,NA,NA,NA,NA,NA
2010-03-07 13:45:00,"Creag Meagaidh","NN449898",-0.394610799333954,2.21337256296393,"940",205,35,"Coire a' Chriochairein East side","KM","Considerable -","Moderate","0",225,5,100,"2 - Trace","0",96,15,NA,0,NA,NA,NA,1,4,NA,NA,NA,NA,NA,NA,NA
2010-03-08 13:15:00,"Creag Meagaidh","NN453881",-0.409877499523968,2.21701463483494,"840",310,35,"Sron a' Ghoire NE ridge","KM","Considerable -","Moderate","0.5",NA,0,0,"0 - None","0",64,10,NA,0,NA,NA,NA,13,3,NA,NA,NA,NA,NA,NA,NA
2010-03-09 14:00:00,"Creag Meagaidh","NN443892",-0.400010685173404,2.20795940159938,"900",145,38,"SE Ridge Coire Chriochairein","TR","Moderate","Moderate","3",NA,3,50,"0 - None","0",52,12,NA,0,NA,NA,NA,0,3,NA,NA,NA,NA,NA,NA,NA
2010-03-10 13:10:00,"Creag Meagaidh","NN435863",-0.426077156279352,2.20077463401561,"890",360,30,"Meall Coire Choile Rais","TR","Considerable -","Considerable -","-1",270,3,50,"0 - None","0",78,10,NA,0,NA,NA,NA,27,3,NA,NA,NA,NA,NA,NA,NA
2010-03-11 13:10:00,"Creag Meagaidh","NN453882",-0.408979081377942,2.21701305293673,"850",100,37,"NE Gullies, Sron a Ghoire","TR","Moderate","Moderate","0.7",280,35,100,"4 - Light Showers","1",110,18,NA,1,NA,NA,NA,11,1,NA,NA,NA,NA,NA,NA,NA
2010-03-12 13:55:00,"Creag Meagaidh","NN448897",-0.395510783019325,2.21247037404101,"920",120,41,"Boundary Wall Gully, Coire Ardair","TR","Moderate","Moderate","0.3",325,30,80,"2 - Trace","0",80,25,NA,1,NA,NA,NA,0,2,NA,NA,NA,NA,NA,NA,NA
2010-03-13 11:45:00,"Creag Meagaidh","NN455895",-0.397296543072686,2.2187999948913,"600",180,30,"Below Min Window","WS / TR","","Moderate","4",300,25,100,"","0",42,NA,NA,0,NA,NA,NA,0,3,NA,NA,NA,NA,NA,NA,NA
2010-03-14 13:15:00,"Creag Meagaidh","NN463904",-0.389198165415607,2.22601583590401,"920",100,30,"Sharks Gultch, Carn Liath","","Considerable -","Considerable -","1.8",300,20,100,"4 - Light Showers","0",180,20,NA,0,NA,NA,NA,3,2,NA,NA,NA,NA,NA,NA,NA
2010-03-15 13:05:00,"Creag Meagaidh","NN443895",-0.397315470200133,2.20795465565421,"870",90,33,"Coire Chriochairein","TR","Moderate","Moderate","1.2",27,40,20,"6 - Snow Showers","1",77,23,NA,1,NA,NA,NA,0,1,NA,NA,NA,NA,NA,NA,NA
2010-03-16 16:04:00,"Creag Meagaidh","NN453876",-0.414369599887483,2.21702253611923,"940",95,42,"Re-entrant. Sron aGhoire","TR","Considerable -","Considerable -","0",235,30,100,"","0",100,15,NA,0,NA,NA,NA,3,2,NA,NA,NA,NA,NA,NA,NA
2010-03-17 12:20:00,"Creag Meagaidh","NN462899",-0.39369180706625,2.22512005709334,"900",95,38,"Balloon Gully, Coire Ardair","TR","Considerable +","Considerable +","3.5",225,40,80,"6 - Snow Showers","1",76,35,NA,1,NA,NA,NA,0,2,NA,NA,NA,NA,NA,NA,NA
2010-03-18 13:10:00,"Creag Meagaidh","NN435863",-0.426077156279352,2.20077463401561,"900",360,31,"Shoulder of Meall Coire Choile Rais","TR","Considerable +","Considerable +","4",225,40,100,"0 - None","0",100,31,NA,1,NA,NA,NA,0,3,NA,NA,NA,NA,NA,NA,NA
2010-03-19 12:45:00,"Creag Meagaidh","NN426886",-0.405427704236029,2.19260454613549,"880",100,34,"The Window, Inner Coire","TR","Moderate","Moderate","0.9",270,NA,100,"4 - Light Showers","0",84,30,NA,1,NA,NA,NA,0,3,NA,NA,NA,NA,NA,NA,NA
2010-03-20 12:05:00,"Creag Meagaidh","NN462899",-0.39369180706625,2.22512005709334,"880",145,40,"Balloon Gully","TR","Moderate","Low","0.9",300,30,80,"2 - Trace","0",100,25,NA,1,NA,NA,NA,0,2,NA,NA,NA,NA,NA,NA,NA
2010-03-21 13:05:00,"Creag Meagaidh","NN444873",-0.417078952759039,2.20889313792392,"1020",70,25,"Puist Coire Ardair: E ridge","KM","Considerable -","Moderate","0",230,15,100,"2 - Trace","1",92,1,NA,0,NA,NA,NA,0,4,NA,NA,NA,NA,NA,NA,NA
2010-03-22 13:20:00,"Creag Meagaidh","NN449900",-0.392813989949234,2.21336938521436,"950",30,40,"Min Window","KM","Moderate","Moderate","0.7",220,20,90,"4 - Light Showers","1",143,3,NA,0,NA,NA,NA,0,3,NA,NA,NA,NA,NA,NA,NA
2010-03-23 13:15:00,"Creag Meagaidh","NN441895",-0.39731861568269,2.20614709894446,"920",93,41,"Top of Lifa Gully, Coire Chriochairein","TR","Moderate","Moderate","0.7",225,25,100,"2 - Trace","1",94,2,NA,1,NA,NA,NA,0,1,NA,NA,NA,NA,NA,NA,NA
2010-03-24 12:45:00,"Creag Meagaidh","NN453874",-0.416166444524318,2.21702569280309,"900",145,31,"Coire Chomharsain","TR","Moderate","Low","2.4",180,NA,100,"0 - None","0",100,6,NA,1,NA,NA,NA,0,1,NA,NA,NA,NA,NA,NA,NA
2010-03-25 13:50:00,"Creag Meagaidh","NN446899",-0.393717129706161,2.21065964728553,"970",340,15,"Head of Min Choire","KM","Moderate","Low","1.4",160,10,100,"2 - Trace","0",135,3,NA,0,NA,NA,NA,0,3,NA,NA,NA,NA,NA,NA,NA
2010-03-26 13:45:00,"Creag Meagaidh","NN449900",-0.392813989949234,2.21336938521436,"950",30,30,"Min Window","KM","Considerable -","Moderate","2",230,15,100,"0 - None","0",NA,15,NA,0,NA,NA,NA,0,3,NA,NA,NA,NA,NA,NA,NA
2010-03-27 13:00:00,"Creag Meagaidh","NN451900",-0.392810828705131,2.21517693523895,"910",10,42,"Min Window","JH","Moderate","Considerable -","0.6",270,15,95,"4 - Light Showers","0",140,9,NA,0,NA,NA,NA,1,0,NA,NA,NA,NA,NA,NA,NA
2010-03-28 12:00:00,"Creag Meagaidh","NN445900",-0.392820304676616,2.20975428501912,"910",90,35,"Uinneag Min Choire","JH","Considerable -","Moderate","0.1",310,30,100,"6 - Snow Showers","1",177,18,NA,0,NA,NA,NA,0,1,NA,NA,NA,NA,NA,NA,NA
2010-03-29 12:00:00,"Creag Meagaidh","NN453880",-0.410775918312517,2.21701621618603,"870",40,40,"Bealach a Ghoire","J","High","High","0.8",80,5,30,"0 - None","0",142,5,NA,0,NA,NA,NA,18,5,NA,NA,NA,NA,NA,NA,NA
2010-03-30 12:00:00,"Creag Meagaidh","NN452902",-0.391012437055591,2.21607752639959,"870",160,30,"Uineag Min Choire","JH","High","High","-2.5",60,20,100,"8 - Snow","1",183,100,NA,0,NA,NA,NA,9,4,NA,NA,NA,NA,NA,NA,NA
2010-03-31 11:30:00,"Creag Meagaidh","NN455895",-0.397296543072686,2.2187999948913,"633",140,24,"Below Uinneag Min Choire","KG/JH","High","Considerable +","-2.6",320,10,100,"8 - Snow","1",105,100,NA,0,NA,NA,NA,30,3,NA,NA,NA,NA,NA,NA,NA
2010-04-01 12:15:00,"Creag Meagaidh","NN441896",-0.396420213065309,2.20614551717025,"860",125,35,"Choire a Chriochairein","JH","Considerable +","Moderate","-0.9",220,15,50,"2 - Trace","1",NA,30,NA,0,NA,NA,NA,9,3,NA,NA,NA,NA,NA,NA,NA
2010-04-02 12:25:00,"Creag Meagaidh","NN446869",-0.420669511572462,2.21070700959237,"922",30,40,"Puist Coire Ardair","JH","Considerable +","Moderate","3.9",NA,0,5,"0 - None","0",185,23,NA,0,NA,NA,NA,30,2,NA,NA,NA,NA,NA,NA,NA
2010-04-03 12:00:00,"Creag Meagaidh","NN463900",-0.392791806913748,2.22602223436141,"800",200,30,"Uinneag Coire a Chaoramin","WS","Considerable -","Considerable -","1.2",270,5,100,"","1",100,15,NA,0,NA,NA,NA,1,3,NA,NA,NA,NA,NA,NA,NA
2010-04-04 12:00:00,"Creag Meagaidh","NN472899",-0.39367589636663,2.23415781163329,"800",160,30,"Cairn Liath","WS","High","Considerable -","2",300,15,75,"6 - Snow Showers","0",100,20,NA,1,NA,NA,NA,5,2,NA,NA,NA,NA,NA,NA,NA
2010-04-05 11:55:00,"Creag Meagaidh","NN449900",-0.392813989949234,2.21336938521436,"950",30,25,"Min Window","KM","High","Considerable -","2.5",200,25,100,"","0",98,10,NA,1,NA,NA,NA,5,3,NA,NA,NA,NA,NA,NA,NA
2010-04-06 12:45:00,"Creag Meagaidh","NN449900",-0.392813989949234,2.21336938521436,"930",10,30,"Min Window","KM","Considerable +","Moderate","1",180,30,100,"","1",133,25,NA,1,NA,NA,NA,0,3,NA,NA,NA,NA,NA,NA,NA
2010-04-07 11:45:00,"Creag Meagaidh","NN432877",-0.413504008183533,2.19804136726001,"1020",45,20,"Above Easy Gully","KM","Considerable -","Moderate","-0.4",260,15,80,"6 - Snow Showers","0",121,10,NA,0,NA,NA,NA,1,2,NA,NA,NA,NA,NA,NA,NA
2010-04-08 11:00:00,"Creag Meagaidh","NN426885",-0.406326105206718,2.19260611276995,"980",360,38,"South Side of the Window","BF","Moderate","Moderate","1.6",270,15,90,"0 - None","0",70,10,NA,1,NA,NA,NA,0,2,NA,NA,NA,NA,NA,NA,NA
2010-04-09 11:30:00,"Creag Meagaidh","NN451878",-0.412575897727892,2.21521179879564,"950",40,20,"Sron a Ghoire","BF","Moderate","Moderate","3",200,3,100,"0 - None","0",49,2,NA,0,NA,NA,NA,0,1,NA,NA,NA,NA,NA,NA,NA
2010-04-10 10:10:00,"Creag Meagaidh","NN429885",-0.406321431211715,2.19531746778218,"820",100,24,"window","MA / ND","Moderate",NA,"7.5",0,NA,25,"0 - None","0",170,10,NA,0,NA,NA,NA,0,3,NA,NA,NA,NA,NA,NA,NA
2010-12-17 13:00:00,"Creag Meagaidh","NN473890",-0.401760087981602,2.235076004827,"700",100,32,"Cain Liath","WS/AC","Considerable +","Considerable +","-6",310,20,100,"6 - Snow Showers","1",68,60,NA,0,NA,NA,NA,0,2,10,6,2,5,1,NA,-6.7
2010-12-18 13:20:00,"Creag Meagaidh","NN471898",-0.394575907360136,2.23325563912069,"890",250,41,"Shepherd's Crook, Carn Liath","TR/SR","Considerable -","Considerable -","-5.6",150,30,100,"6 - Snow Showers","1",80,80,30,0,-6,150,30,0,2,16,6,2,NA,NA,NA,NA
2010-12-19 13:10:00,"Creag Meagaidh","NN449897",-0.395509204995863,2.21337415101943,"880",250,31,"Wall Gully, Coire Chriochairein","TR","Considerable -","Considerable -","-4.6",90,15,20,"4 - Light Showers","1",90,40,20,0,NA,NA,NA,0,3,20,4,2,NA,NA,NA,-7.1
2010-12-20 13:30:00,"Creag Meagaidh","NN467896",-0.396379106210639,2.22964373373291,"700",100,30,"Balloon Gully ,Cairn Liath","WS","Considerable -","Considerable -","-4",45,5,90,"0 - None","0",40,30,NA,0,NA,NA,NA,0,1,20,0,2,NA,1,NA,NA
2010-12-21 12:15:00,"Creag Meagaidh","NN458884",-0.407174369670313,2.22152881405228,"800",50,30,"Sron A Ghoire","WS","Considerable -","Considerable -","-6.2",45,2,5,"2 - Trace","0",60,30,NA,0,NA,NA,NA,0,2,20,NA,NA,NA,1,3,-5.4
2010-12-22 13:20:00,"Creag Meagaidh","NN442895",-0.397317043264217,2.20705087730541,"880",70,32,"Lifa Gully, Coire Chriochairein","TR","Considerable -","Moderate","-4.5",150,3,0,"0 - None","0",60,21,NA,0,NA,NA,NA,0,3,20,0,NA,5,NA,NA,NA
2010-12-23 12:45:00,"Creag Meagaidh","NN465898",-0.39458545437621,2.22783298257444,"800",50,30,"Cairn Liath","WS","Moderate","Moderate","-6.2",45,-2,5,"0 - None","0",60,30,NA,0,NA,NA,NA,0,2,20,NA,NA,NA,1,NA,NA
2010-12-24 12:45:00,"Creag Meagaidh","NN444896",-0.396415492248555,2.20885685027082,"800",80,30,"Stone Coire Coire a Chriochairein","WS","Considerable -","Considerable -","-2.6",340,15,50,"0 - None","0",60,20,NA,0,NA,NA,NA,0,2,20,NA,NA,NA,1,NA,-6.2
2010-12-25 13:00:00,"Creag Meagaidh","NN464879",-0.411657016340518,2.22695947050671,"750",130,30,"Sron a Ghoire","WS & TR","Considerable +","Considerable -","0",270,5,100,"2 - Trace","1",60,20,NA,0,NA,NA,NA,0,1,22,2,NA,5,1,NA,-3.4
2010-12-26 13:35:00,"Creag Meagaidh","NN454878",-0.412571186897706,2.21792316645421,"860",100,30,"Bealach a Ghoire","TR & SR","Considerable -","Considerable -","-2",260,25,100,"2 - Trace","1",80,27,NA,0,NA,NA,NA,0,3,24,2,NA,5,1,NA,-3.1
2010-12-27 13:35:00,"Creag Meagaidh","NN455882",-0.40897593454623,2.21882062617796,"860",30,32,"NE Gullies, Sron a Ghoire","TR & OR","Considerable -","Considerable -","-0.8",NA,NA,100,"6 - Snow Showers","1",90,41,NA,0,NA,NA,NA,0,3,30,6,NA,5,2,NA,-1
2010-12-28 13:00:00,"Creag Meagaidh","NN474894",-0.398164806221964,2.23597338104668,"800",230,30,"Cairn Liath","WS","Considerable -","Moderate","1.3",130,8,100,"","0",60,20,NA,0,NA,NA,NA,0,1,32,2,2,NA,2,NA,-0.8
2010-12-29 13:15:00,"Creag Meagaidh","NN446894",-0.398209153105803,2.2106675750995,"800",60,30,"Coire a Chriochairein","WS","Moderate","Moderate","4",180,2,75,"0 - None","0",50,20,NA,0,NA,NA,NA,0,2,32,2,NA,NA,2,NA,0
2010-12-30 13:30:00,"Creag Meagaidh","NN475896",-0.396366370109182,2.23687395255005,"800",140,35,"Cairn Liath","WS","Moderate","Moderate","2.5",270,2,100,"0 - None","0",50,20,NA,0,NA,NA,NA,0,2,32,NA,NA,NA,2,NA,NA
2010-12-31 12:40:00,"Creag Meagaidh","NN485907",-0.386467741448417,2.24589397493342,"890",95,36,"No.! Gully, Coire nan Gall","TR","Moderate","Low","2",300,25,100,"0 - None","0",70,17,NA,0,NA,NA,NA,0,3,32,NA,NA,5,3,NA,0
2011-01-01 12:45:00,"Creag Meagaidh","NN457879",-0.411668048040638,2.22063295116696,"750",110,30,"Bealach Sron a Ghoire","WS","Low","Low","-1.2",345,15,80,"2 - Trace","0",50,18,NA,0,NA,NA,NA,0,4,34,2,NA,NA,1,NA,-0.1
2011-01-02 13:10:00,"Creag Meagaidh","NN435864",-0.425178736356055,2.20077307351219,"850",50,27,"Meall Coire Choile Rais","TR","Considerable -","Moderate","-3",320,15,100,"2 - Trace","1",60,2,NA,0,NA,NA,NA,0,3,36,2,NA,NA,1,NA,-2.3
2011-01-03 13:45:00,"Creag Meagaidh","NN458898",-0.394596563153941,2.22150654937965,"750",120,30,"Balloon Gully","WS","Considerable -","Considerable -","1.5",245,20,100,"4 - Light Showers","1",40,10,NA,0,NA,NA,NA,0,2,40,4,3,NA,1,NA,-2
2011-01-04 13:00:00,"Creag Meagaidh","NN463903",-0.390096574819218,2.22601743634231,"900",220,30,"Cairn Liath","WS/TR","Considerable -","Considerable +","1.2",220,15,90,"6 - Snow Showers","1",50,15,NA,0,NA,NA,NA,0,2,40,NA,NA,NA,1,NA,-0.5
2011-01-05 13:40:00,"Creag Meagaidh","NN448897",-0.395510783019325,2.21247037404101,"900",80,40,"Wall Gully, Coire Chriochairein","TR & OR","Considerable +","Considerable +","-0.6",220,3,50,"6 - Snow Showers","1",60,30,NA,0,NA,NA,NA,0,3,46,6,NA,NA,1,NA,-1.7
2011-01-06 12:45:00,"Creag Meagaidh","NN445898",-0.394617109721387,2.20975745757351,"940",145,41,"Top of backwall, Coire Chriochairein","TR","Considerable -","Considerable -","-6",340,40,60,"4 - Light Showers","1",80,32,NA,0,NA,NA,NA,0,2,50,4,NA,5,1,NA,-4.9
2011-01-07 16:01:00,"Creag Meagaidh","NN442893",-0.399113851518148,2.20705404051716,"800",60,38,"Coire Ardair","WS/TR","Considerable -","Considerable -","-4.5",300,5,2,"2 - Trace","1",60,25,NA,0,NA,NA,NA,0,4,50,2,3,NA,1,NA,-7.7
2011-01-08 12:45:00,"Creag Meagaidh","NN461902",-0.390998163819667,2.22421148909922,"920",150,35,"Cairn Liath","WS/SA","Considerable -","Considerable +","-4.2",340,10,20,"2 - Trace","1",190,17,NA,0,NA,NA,NA,0,3,52,2,3,NA,1,NA,-4.7
2011-01-09 13:25:00,"Creag Meagaidh","NN429885",-0.406321431211715,2.19531746778218,"890",95,32,"The Window","TR","High","High","-5",270,35,50,"6 - Snow Showers","1",85,35,NA,0,NA,NA,NA,0,3,58,6,NA,NA,0,NA,-3.2
2011-01-10 12:55:00,"Creag Meagaidh","NN459882",-0.408969633169815,2.22243577251405,"800",100,37,"NE ridge of Sron a Ghoire","TR & WS","Considerable +","Considerable -","-1.5",270,10,100,"8 - Snow","1",100,60,40,0,NA,NA,NA,0,3,66,8,NA,NA,1,NA,-2.1
2011-01-11 13:45:00,"Creag Meagaidh","NN443862",-0.426963153164862,2.20800659133683,"650",240,30,"Coire -Choille-rais","WS","High","High","-2",180,5,2,"0 - None","0",50,40,NA,0,NA,NA,NA,0,2,66,NA,3,NA,NA,NA,-3.1
2011-01-12 13:45:00,"Creag Meagaidh","NN457895",-0.397293379512614,2.22060755126022,"750",120,30,"Cairn Liath","WS","High","Considerable +","2.5",250,20,100,"2 - Trace","0",60,20,NA,1,NA,NA,NA,0,2,68,2,3,5,2,NA,-0.1
2011-01-13 14:00:00,"Creag Meagaidh","NN428886",-0.405424587806573,2.19441211486297,"900",90,33,"The Window","TR & WS","Considerable +","Moderate","2.2",260,40,100,"6 - Snow Showers","1",85,41,NA,1,NA,NA,NA,0,1,74,6,NA,NA,3,NA,0.1
2011-01-14 12:50:00,"Creag Meagaidh","NN454787",-0.494330121935497,2.21806473708854,"800",92,32,"Beal ach a Ghoire, Sron a Ghoire","TR","Considerable -","Moderate","1.5",255,35,100,"0 - None","0",65,9,NA,1,NA,NA,NA,0,1,74,0,NA,NA,4,NA,-0.1
2011-01-15 14:00:00,"Creag Meagaidh","NN464894",-0.398180702483223,2.22693559430938,"800",220,30,"Cairn Liath","WS","Moderate","Moderate","4.5",220,40,100,"8 - Snow","0",30,15,NA,1,NA,NA,NA,0,2,74,NA,NA,NA,2,NA,0
2011-01-16 12:15:00,"Creag Meagaidh","NN462899",-0.39369180706625,2.22512005709334,"850",100,39,"Balloon Gully","TR","Moderate","Considerable -","2.8",220,40,100,"0 - None","0",55,12,NA,1,NA,NA,NA,0,2,74,NA,NA,NA,4,NA,0
2011-01-17 15:21:00,"Creag Meagaidh","NN455878",-0.412569615337266,2.21882695564937,"880",60,42,"Bealach a Ghoire, Sron a Ghoire","TR","Considerable +","Considerable -","-1.5",260,25,60,"8 - Snow","1",90,50,NA,0,NA,NA,NA,0,3,82,8,NA,5,2,NA,-1.9
2011-01-18 12:30:00,"Creag Meagaidh","NN469895",-0.397274343917784,2.23145288844647,"800",120,30,"Cairn Liath","WS","Considerable -","Considerable -","-1.5",270,35,80,"6 - Snow Showers","1",60,15,NA,0,NA,NA,NA,0,3,88,6,3,NA,1,-2,NA
2011-01-19 12:45:00,"Creag Meagaidh","NN461902",-0.390998163819667,2.22421148909922,"930",90,32,"Cairn Liath","WS / BF","Moderate","Considerable -","-0.1",300,10,100,"2 - Trace","1",60,15,NA,0,NA,NA,NA,0,2,90,2,4,NA,1,NA,-0.2
2011-01-20 14:10:00,"Creag Meagaidh","NN427886",-0.405426146343092,2.19350833050526,"920",90,35,"The Window","TR","Considerable -","Moderate","-2.5",270,20,10,"0 - None","1",80,29,NA,0,NA,NA,NA,0,4,90,NA,NA,NA,1,NA,-5
2011-01-21 12:15:00,"Creag Meagaidh","NN432883",-0.40811356175993,2.19803196208392,"800",90,27,"Inner Coire, Coire Ardair","BF","Moderate","","1.3",300,5,100,"0 - None","0",40,10,NA,0,NA,NA,NA,0,3,90,0,4,1,2,NA,0
2011-01-22 15:08:00,"Creag Meagaidh","NN458883",-0.408072789252692,2.22153040027442,"800",40,30,"NE Gullies Sron a Ghoire","WS","","Low","3.5",300,2,90,"","0",150,12,NA,0,NA,NA,NA,0,2,90,0,4,NA,NA,NA,-0.1
2011-01-23 13:00:00,"Creag Meagaidh","NN461902",-0.390998163819667,2.22421148909922,"930",100,30,"Sharks Gultch, Cain Liath","WS / SA","Moderate","Moderate","0.5",300,2,100,"2 - Trace","0",90,8,NA,0,NA,NA,NA,0,2,92,2,4,NA,1,NA,-0.1
2011-01-24 13:20:00,"Creag Meagaidh","NN451878",-0.412575897727892,2.21521179879564,"950",85,31,"Sron a Ghoire","TR","Moderate","Moderate","1.2",280,35,100,"4 - Light Showers","0",65,15,NA,1,NA,NA,NA,0,2,96,4,NA,NA,3,NA,0
2011-01-25 13:05:00,"Creag Meagaidh","NN449900",-0.392813989949234,2.21336938521436,"950",45,37,"The Min Window","TR","Moderate","Moderate","1.2",270,20,100,"2 - Trace","0",90,20,NA,1,NA,NA,NA,0,1,98,2,NA,NA,3,NA,0
2011-01-26 13:30:00,"Creag Meagaidh","NN451897",-0.395506047010727,2.21518170493974,"800",120,30,"Coire a Chriochairein","WS","Moderate","Low","-1.5",360,35,100,"2 - Trace","1",80,2,NA,0,NA,NA,NA,0,2,100,2,4,NA,1,NA,NA
2011-01-27 17:37:00,"Creag Meagaidh","NN445867",-0.422467917390986,2.20980635323878,"800",120,NA,"Choire-Rais","WS","Low","Low","0.5",5,90,0,"0 - None","0",80,0,NA,0,NA,NA,NA,0,2,100,NA,NA,NA,1,NA,NA
2011-01-28 13:30:00,"Creag Meagaidh","NN474902",-0.390977454372693,2.23596054458112,"900",110,29,"S. flank of Carn Liath","TR","Moderate","Low","-4",200,20,100,"2 - Trace","1",80,2,NA,0,NA,NA,NA,0,2,102,2,NA,NA,1,NA,-2
2011-01-29 13:15:00,"Creag Meagaidh","NN436887",-0.404513690628473,2.20164081564855,"800",130,30,"Coire Ardair","WS","Low","Moderate","1",270,2,90,"2 - Trace","0",42,2,NA,0,NA,NA,NA,0,2,104,2,4,NA,1,NA,-0.2
2011-01-30 12:50:00,"Creag Meagaidh","NN441895",-0.39731861568269,2.20614709894446,"870",110,39,"lifa Gully, Coire Chriochairein","TR","Considerable -","Considerable +","-3.9",190,30,100,"2 - Trace","1",78,3,NA,0,NA,NA,2,0,2,106,2,4,NA,1,NA,-3
2011-01-31 13:15:00,"Creag Meagaidh","NN427886",-0.405426146343092,2.19350833050526,"910",90,33,"The Window","TR","Considerable +","Considerable +","2",250,50,100,"4 - Light Showers","0",70,18,NA,1,NA,NA,4,0,2,110,NA,NA,NA,3,NA,0
2011-02-01 13:15:00,"Creag Meagaidh","NN452879",-0.411675908563848,2.21611400841531,"890",85,35,"Above Bealach a Ghoire","TR","Considerable +","Considerable +","-1",250,50,90,"6 - Snow Showers","1",80,25,NA,0,NA,NA,NA,0,3,116,6,NA,5,1,NA,-0.4
2011-02-02 13:35:00,"Creag Meagaidh","NN457857",-0.431433485472395,2.22066764696869,"780",100,31,"The Notch, Meall Choire Choile Rais","TR","Considerable +","Considerable -","2.6",220,55,100,"4 - Light Showers","0",85,16,NA,1,NA,NA,NA,0,1,120,4,NA,NA,3,3,0
2011-02-03 13:30:00,"Creag Meagaidh","NN449896",-0.396407611303843,2.21337573852874,"800",60,30,"Coire Chriochairein","WS/TR","High","High","-2.3",220,30,100,"6 - Snow Showers","1",50,18,NA,0,NA,NA,NA,0,3,126,6,4,NA,1,NA,-1.8
2011-02-04 13:30:00,"Creag Meagaidh","NN475895",-0.397264791254694,2.23687555637746,"700",130,30,"Na Cnapanan /Cairn Liath","WS/TR","Considerable -","Considerable -","3.5",270,45,100,"6 - Snow Showers","0",40,20,NA,1,NA,NA,NA,0,3,132,6,4,NA,2,NA,NA
2011-02-05 12:15:00,"Creag Meagaidh","NN456875",-0.415263312101821,2.21973548811961,"800",100,30,"Sron a Ghoire","WS/TR","Considerable -","Moderate","1.5",270,30,100,"4 - Light Showers","1",50,18,NA,0,NA,NA,NA,0,1,136,6,4,NA,1,NA,-1.5
2011-02-06 13:00:00,"Creag Meagaidh","NN411864",-0.425215788082267,2.17908190758574,"800",60,40,"Moy Coire","WS","Considerable -","Considerable +","1.3",270,5,100,"4 - Light Showers","0",50,15,NA,0,NA,NA,NA,0,3,140,4,4,NA,1,NA,-0.1
2011-02-07 13:10:00,"Creag Meagaidh","NN441895",-0.39731861568269,2.20614709894446,"880",100,33,"Lifa Gully, Coire Chriochairein","TR","Considerable +","Considerable +","-1.2",260,45,100,"8 - Snow","1",90,50,NA,0,NA,NA,NA,0,4,148,8,NA,NA,1,NA,-0.8
2011-02-08 13:35:00,"Creag Meagaidh","NN427886",-0.405426146343092,2.19350833050526,"890",100,32,"The Window","TR","High","Considerable -","-0.5",270,25,100,"4 - Light Showers","1",100,43,NA,0,NA,NA,NA,0,3,152,4,NA,NA,1,NA,-0.8
2011-02-09 12:45:00,"Creag Meagaidh","NN450897",-0.395507626326331,2.21427792798567,"800",80,30,"Chriochairein -Boundary Wall Gully","WS/TR","Considerable -","Low","2.3",200,10,100,"2 - Trace","0",50,10,NA,0,NA,NA,NA,0,2,152,NA,NA,NA,1,NA,-0.2
2011-02-10 13:30:00,"Creag Meagaidh","NN461901",-0.391896573426273,2.22421308713899,"930",90,20,"Cairn Liath","WS","Considerable -","Low","-0.6",270,2,30,"2 - Trace","0",50,2,NA,0,NA,NA,NA,0,3,154,2,4,NA,1,NA,NA
2011-02-11 13:15:00,"Creag Meagaidh","NN455877",-0.413468037140228,2.21882853664832,"800",80,25,"Bealach Sron a Ghoire","WS","Considerable +","Considerable +","-0.6",170,5,100,"2 - Trace","1",100,0,NA,0,NA,NA,NA,0,2,156,2,6,NA,1,NA,-0.5
2011-02-12 14:00:00,"Creag Meagaidh","NN432880",-0.410808782081565,2.19803666711289,"820",360,41,"Below Missed the Post, Easy Gully","TR","Considerable +","Considerable +","-1.6",180,20,80,"6 - Snow Showers","1",72,30,NA,0,NA,NA,NA,0,2,162,6,NA,NA,1,NA,-1
2011-02-13 12:20:00,"Creag Meagaidh","NN453880",-0.410775918312517,2.21701621618603,"860",10,39,"Death Gullies II, Sron a Ghoire","TR","Considerable -","Considerable -","-1.8",175,20,100,"6 - Snow Showers","1",91,41,NA,0,NA,NA,NA,0,3,168,6,NA,NA,1,NA,-1.4
2011-02-14 13:30:00,"Creag Meagaidh","NN471897",-0.39547432502053,2.23325724145576,"800",100,30,"Cairn Liath","WS","Considerable -","High","-0.5",150,2,100,"6 - Snow Showers","1",90,13,NA,0,NA,NA,NA,0,2,174,6,6,NA,1,NA,-0.2
2011-02-15 13:30:00,"Creag Meagaidh","NN442895",-0.397317043264217,2.20705087730541,"820",140,30,"Coire a Chriochairein","WS /TR","High","Considerable +","-1.6",150,30,100,"6 - Snow Showers","1",100,27,NA,0,NA,NA,NA,0,2,180,6,6,NA,1,NA,-1.8
2011-02-16 13:15:00,"Creag Meagaidh","NN454881",-0.409875926973458,2.21791842210714,"860",320,42,"Death Gullies II, Sron a Ghoire","TR & WS","Considerable -","Considerable -","0.5",150,5,100,"6 - Snow Showers","0",64,22,NA,0,NA,NA,NA,0,3,186,6,NA,NA,1,NA,-0.9
2011-02-17 14:10:00,"Creag Meagaidh","NN428884",-0.407221392543612,2.19441525017583,"910",322,42,"Cinderella, Inner Corrie","TR","Considerable +","Considerable -","-1",150,10,5,"4 - Light Showers","1",105,29,NA,0,NA,NA,NA,0,3,190,4,NA,NA,1,NA,-3.2
2011-02-18 13:45:00,"Creag Meagaidh","NN459883",-0.408071212399378,2.22243418619442,"750",60,NA,"Sron a Ghoire","WS","High","Considerable +","0.5",120,30,100,"2 - Trace","0",55,15,NA,0,NA,NA,NA,0,3,192,3,6,NA,2,NA,-0.1
2011-02-19 16:46:00,"Creag Meagaidh","NN445865",-0.424264764863177,2.20980948980174,"800",300,30,"Creag Mhor Ridge","WS","Considerable -","Considerable -","0.5",130,5,100,"","1",50,10,NA,0,NA,NA,NA,0,2,198,6,6,NA,1,NA,-0.5
2011-02-20 13:09:00,"Creag Meagaidh","NN388842",-0.445015783377961,2.15832807855258,"960",30,40,"Beinn a Chaorainn - South Ridge","TR & DS","Considerable -","Considerable -","-1.2",185,20,100,"0 - None","1",85,30,NA,0,NA,NA,NA,0,3,198,0,8,5,1,NA,-1.2
2011-02-21 13:40:00,"Creag Meagaidh","NN426885",-0.406326105206718,2.19260611276995,"980",350,33,"Top of The Window","TR & DS","Considerable -","Moderate","-1.9",175,20,90,"4 - Light Showers","1",90,15,NA,0,NA,NA,NA,0,1,202,4,NA,NA,1,NA,-2.3
2011-02-22 13:30:00,"Creag Meagaidh","NN469897",-0.395477508849324,2.23144968802461,"900",130,20,"Cairn Liath","WS","High","Considerable +","1",160,2,199,"2 - Trace","0",50,10,NA,1,NA,NA,NA,0,3,204,2,8,NA,1,NA,-0.2
2011-02-23 14:00:00,"Creag Meagaidh","NN452885",-0.406285404880193,2.21610451925838,"750",20,35,"Sron a Ghoire","WS","Considerable +","Moderate","5",180,20,100,"","0",72,22,NA,1,NA,NA,NA,0,2,204,NA,8,NA,2,NA,-0.1
2011-02-24 13:30:00,"Creag Meagaidh","NN455875",-0.41526488267084,2.2188316970035,"800",110,30,"Sron a Ghoire","TR / WS","Moderate","Moderate","5.8",200,20,80,"","0",50,20,NA,0,NA,NA,NA,0,3,204,NA,8,NA,2,NA,0
2011-02-25 13:00:00,"Creag Meagaidh","NN430885",-0.406319871926654,2.19622125276213,"830",110,25,"The Window","TR","Considerable -","Moderate","3.3",225,55,100,"0 - None","0",67,6,NA,1,NA,NA,NA,0,3,204,0,NA,NA,3,NA,0
2011-02-26 12:40:00,"Creag Meagaidh","NN443896",-0.396417066499975,2.20795307258278,"850",80,40,"lifa Gully, Coire Chriochairein","TR","Moderate","Considerable -","0.1",270,20,60,"4 - Light Showers","1",90,5,NA,0,NA,NA,NA,0,2,208,4,8,NA,2,NA,0
2011-02-27 13:20:00,"Creag Meagaidh","NN452880",-0.410777489676754,2.21611242825638,"890",110,30,"Summit slopes Sron a Ghoire","TR","Considerable -","Considerable -","1.2",320,30,30,"","1",80,30,NA,0,NA,NA,NA,0,2,216,8,NA,NA,1,NA,-0.1
2011-02-28 13:05:00,"Creag Meagaidh","NN444874",-0.416180534364948,2.20889156619602,"1000",50,42,"Puist Coire Ardair","TR","Considerable -","Considerable -","1",180,5,5,"0 - None","0",90,30,NA,0,NA,NA,NA,0,3,216,NA,NA,NA,1,NA,-1.4
2011-03-01 13:25:00,"Creag Meagaidh","NN441896",-0.396420213065309,2.20614551717025,"1000",120,40,"Coire a' Chriochairein","KM","Moderate","Low","1.9",180,5,40,"0 - None","0",183,5,NA,0,NA,NA,NA,0,2,216,0,10,0,2,NA,0
2011-03-02 11:45:00,"Creag Meagaidh","NN428885",-0.406322989853411,2.19441368279016,"930",20,30,"Top of Inner Coire","BF","Low","Low","1.5",320,5,100,"0 - None","0",150,5,NA,0,NA,NA,NA,0,2,216,0,10,0,1,NA,-0.1
2011-03-03 12:55:00,"Creag Meagaidh","NN450900",-0.392812409650552,2.21427316023274,"900",85,40,"The Min Window","TR","Low","Low","2.1",225,5,100,"0 - None","0",90,5,NA,0,NA,NA,NA,0,1,216,NA,NA,NA,1,NA,0
2011-03-04 12:45:00,"Creag Meagaidh","NN432880",-0.410808782081565,2.19803666711289,"800",20,34,"Easy Gully","TR","Low","Low","1.6",225,10,70,"0 - None","0",91,3,NA,0,NA,NA,NA,0,1,216,0,NA,NA,1,NA,0
2011-03-05 12:40:00,"Creag Meagaidh","NN436859",-0.429669293249632,2.2016846722328,"850",90,37,"Meall Coire Choille Rais","TR","Low","Low","3",180,10,60,"0 - None","0",77,8,NA,0,NA,NA,NA,0,1,216,0,NA,NA,1,NA,0
2011-03-06 12:15:00,"Creag Meagaidh","NN442895",-0.397317043264217,2.20705087730541,"850",85,40,"Lif a Gully, Coire a Chriochairein","TR","Low","Low","-1",225,10,100,"0 - None","0",100,3,NA,0,NA,NA,NA,0,1,216,0,10,0,1,NA,0
2011-03-07 12:00:00,"Creag Meagaidh","NN432880",-0.410808782081565,2.19803666711289,"800",360,37,"Easy Gully","TR","Considerable +","Moderate","0",223,20,100,"0 - None","0",76,1,NA,0,NA,NA,NA,0,1,216,0,NA,NA,1,NA,0
2011-03-08 13:05:00,"Creag Meagaidh","NN444900",-0.392821881741634,2.2088505099399,"950",40,30,"Min Choire","KM","High",NA,"0.1",230,30,100,"6 - Snow Showers","1",67,5,NA,0,NA,NA,NA,0,2,222,6,10,0,2,NA,0
2011-03-10 14:00:00,"Creag Meagaidh","NN432886",-0.405418347224626,2.19802725217315,"800",150,25,"Inner Corrie","PN","Considerable +","Considerable -","-1.4",280,12,95,"6 - Snow Showers","1",80,15,NA,0,-4.2,250,40,0,1,236,6,10,NA,1,2,1.3
2011-03-11 11:45:00,"Creag Meagaidh","NN430885",-0.406319871926654,2.19622125276213,"800",140,20,"Inner Corrie","PN","High","High","-1.8",330,10,85,"6 - Snow Showers","1",114,15,6,0,-4.8,250,29,0,2,242,6,10,5,1,NA,-1.8
2011-03-12 12:00:00,"Creag Meagaidh","NN432885",-0.406316751426432,2.19802882268582,"850",90,25,"Inner Coire","IP","High","High","-3",180,20,100,"10 - Heavy Snow","1",85,25,5,0,-5,200,30,0,2,262,10,10,NA,1,NA,-2.3
2011-03-13 12:40:00,"Creag Meagaidh","NN475888",-0.403553757339775,2.23688676771328,"600",190,32,"Na Cnapanan, Carn Liath","TR","High","High","-1.5",50,15,100,"10 - Heavy Snow","1",90,80,NA,0,NA,NA,NA,0,2,272,10,NA,NA,1,NA,-0.1
2011-03-14 13:05:00,"Creag Meagaidh","NN473890",-0.401760087981602,2.235076004827,"650",200,31,"Coire Chrannaig","TR & AC","Considerable +","Considerable -","-1.2",50,20,100,"4 - Light Showers","1",100,70,25,0,NA,NA,NA,NA,1,282,10,NA,NA,0,NA,-1
2011-03-15 12:50:00,"Creag Meagaidh","NN453881",-0.409877499523968,2.21701463483494,"860",390,34,"Death Gullies. Sron a Ghoire","TR","Considerable -","Considerable -","-0.5",140,8,100,"6 - Snow Showers","1",93,60,8,0,NA,NA,NA,0,3,288,6,NA,NA,1,NA,-0.6
2011-03-16 13:20:00,"Creag Meagaidh","NN447897",-0.395512360396719,2.21156659705043,"850",240,33,"Coire Chriochairein","TR","Considerable +","Considerable -","-0.3",220,5,0,"0 - None","1",88,50,5,0,NA,200,20,0,1,288,NA,NA,NA,3,NA,-0.8
2011-03-17 13:10:00,"Creag Meagaidh","NN445874",-0.41617897139092,2.20979535808985,"970",5,40,"Coire nan Gamhna (top)","TR","Considerable +","Considerable -","-1.9",230,20,50,"4 - Light Showers","1",77,35,10,0,NA,NA,NA,0,2,288,NA,NA,NA,NA,NA,-1.9
2011-03-18 12:45:00,"Creag Meagaidh","NN431884",-0.407216716304326,2.19712660705412,"820",45,15,"Inner Coire, Coire Ardair","BF NT","Considerable -","Considerable +","0.4",320,15,100,"6 - Snow Showers","1",125,15,NA,0,NA,NA,NA,0,1,294,6,12,0,1,NA,-1.1
2011-03-19 13:05:00,"Creag Meagaidh","NN449900",-0.392813989949234,2.21336938521436,"950",40,33,"Min Window","KM","Considerable +","Considerable +","-0.6",220,15,90,"2 - Trace","1",138,15,NA,0,NA,NA,NA,0,2,296,2,12,0,1,NA,-1
2011-03-20 13:40:00,"Creag Meagaidh","NN448897",-0.395510783019325,2.21247037404101,"900",65,30,"Wall Gully, Coire Chriochairein","WS & TR","Considerable -","Considerable -","4.6",260,20,80,"0 - None","0",100,30,NA,0,NA,NA,NA,0,2,296,NA,NA,NA,2,NA,0
2011-03-21 12:50:00,"Creag Meagaidh","NN462899",-0.39369180706625,2.22512005709334,"840",95,39,"Balloon Gully","TR","Moderate","Moderate","5",220,NA,100,"0 - None","0",87,35,NA,0,NA,NA,NA,0,2,296,NA,NA,NA,2,NA,0
2011-03-22 13:25:00,"Creag Meagaidh","NN446868",-0.421567934252179,2.21070857987982,"890",92,36,"Creag Mhor Ridge, Puist Coire Ardair","TR","Moderate","Moderate","4.2",260,19,40,"0 - None","0",84,12,NA,0,NA,NA,NA,0,1,296,0,12,NA,3,NA,0
2011-03-23 13:15:00,"Creag Meagaidh","NN443901",-0.391925057691169,2.20794514905286,"930",40,30,"Min Choire","KM","Moderate","Moderate","4.6",270,20,100,"0 - None","0",250,15,NA,1,NA,NA,NA,0,2,296,0,12,0,2,NA,0
2011-03-24 14:10:00,"Creag Meagaidh","NN428885",-0.406322989853411,2.19441368279016,"920",90,36,"The Window","TR","Moderate","Low","2",270,12,60,"0 - None","0",61,5,NA,0,NA,NA,NA,0,2,296,NA,12,NA,2,NA,0
2011-03-25 13:30:00,"Creag Meagaidh","NN456879",-0.411669621429442,2.21972916264101,"790",90,40,"Sron a Ghoire","TR","Moderate","Low","2.1",360,10,60,"0 - None","0",71,8,NA,0,NA,NA,NA,0,1,296,NA,NA,NA,2,NA,0
2011-03-26 12:50:00,"Creag Meagaidh","NN455881",-0.409874353780423,2.21882220936715,"840",15,31,"Death Gullies, Sron a Ghoire","TR","Low","Low","2.3",225,5,100,"2 - Trace","0",67,7,NA,1,NA,NA,NA,0,1,298,2,12,0,2,NA,0
2011-03-27 12:05:00,"Creag Meagaidh","NN485907",-0.386467741448417,2.24589397493342,"910",95,41,"Coire nan Gall - top","TR","Moderate","Low","1.7",270,5,80,"","0",87,8,NA,0,NA,NA,NA,0,1,298,0,12,NA,2,NA,0
2011-03-28 11:55:00,"Creag Meagaidh","NN433880",-0.410807223562914,2.19894045528512,"740",10,36,"Easy Gully, Coire Ardair","TR & MD","Moderate","Low","2.5",90,4,100,"0 - None","0",90,30,NA,0,NA,NA,NA,0,2,298,NA,NA,NA,2,NA,0
2011-03-29 12:15:00,"Creag Meagaidh","NN434864",-0.425180287522949,2.19986927507037,"870",50,31,"Above Lochain Coire Choile Rais","TR","Moderate","Moderate","1.7",NA,3,100,"0 - None","0",70,8,NA,1,NA,NA,NA,0,1,298,NA,NA,NA,1,NA,0
2011-03-30 12:40:00,"Creag Meagaidh","NN429885",-0.406321431211715,2.19531746778218,"850",90,33,"The Window - approaches","TR","Moderate","Moderate","4.1",180,15,100,"0 - None","0",92,14,NA,1,NA,NA,NA,0,2,298,NA,NA,NA,NA,NA,NA
2011-03-31 11:10:00,"Creag Meagaidh","NN443895",-0.397315470200133,2.20795465565421,"770",110,33,"Lifa Gully, Coire Chriochairein","TR","Moderate","Moderate","5.2",270,40,100,"0 - None","0",62,17,NA,1,NA,NA,NA,0,1,298,NA,NA,NA,3,NA,0
2011-04-01 12:10:00,"Creag Meagaidh","NN437857",-0.431464592531381,2.20259159144885,"780",110,29,"Meall Coire Choile Rais shoulder","TR","Moderate","Moderate","10.1",225,43,100,"0 - None","0",54,17,NA,1,NA,NA,NA,0,1,298,NA,NA,NA,2,NA,0
2011-04-02 12:25:00,"Creag Meagaidh","NN497914",-0.3801594444702,2.2567278292439,"840",40,37,"Coire Dubh","TR","Considerable -",NA,"2",270,15,70,"2 - Trace","0",70,13,NA,0,NA,NA,NA,0,1,300,2,20,NA,2,NA,0
2011-04-04 13:00:00,"Creag Meagaidh","NN454880",-0.41077434630598,2.2179200041035,"850",80,36,"Bealach a Ghoire","TR","Considerable +","Moderate","2",225,40,100,"6 - Snow Showers","1",70,40,NA,1,NA,NA,NA,0,1,12,6,NA,NA,2,NA,0
2011-04-05 12:05:00,"Creag Meagaidh","NN426884",-0.407224506820765,2.19260767886333,"980",45,43,"The Window","KM","Moderate","Low","2.6",240,25,100,"0 - None","0",215,20,NA,1,NA,NA,NA,0,1,12,NA,20,0,2,NA,0
2011-04-06 11:25:00,"Creag Meagaidh","NN429885",-0.406321431211715,2.19531746778218,"850",90,34,"The Window. Inner Corrie","TR","Moderate","Low","9",230,50,100,"0 - None","0",65,20,NA,1,NA,NA,NA,0,1,12,NA,20,NA,10,NA,0
2011-04-07 11:45:00,"Creag Meagaidh","NN428886",-0.405424587806573,2.19441211486297,"915",110,30,"The window","KG","Low","Low","2.2",230,20,100,"2 - Trace","0",215,4,NA,1,NA,NA,NA,0,3,14,2,20,0,2,NA,0
2011-04-08 12:20:00,"Creag Meagaidh","NN443893",-0.399112279537071,2.20795782016252,"790",40,25,"Coire a' Chriochairein","KM, TR","Low","Low","6.5",210,10,30,"0 - None","0",86,10,NA,0,NA,NA,NA,0,2,14,0,20,0,2,NA,0
2011-04-09 11:20:00,"Creag Meagaidh","NN430885",-0.406319871926654,2.19622125276213,"750",100,28,"Inner Corrie, Coire Ardair","TR  & SR","Low",NA,"13.5",180,15,5,"0 - None","0",61,6,NA,0,NA,NA,NA,0,1,14,NA,20,NA,2,NA,0
2011-12-16 11:05:00,"Creag Meagaidh","NN485906",-0.387366160974952,2.24589559134363,"870",85,37,"Coire nan Gall","TR","Considerable -","Considerable +","-4.6",360,12,5,"0 - None","0",90,16,NA,0,NA,360,12,0,1,0,NA,2,5,0,NA,-4
2011-12-17 12:00:00,"Creag Meagaidh","NN459883",-0.408071212399378,2.22243418619442,"650",90,32,"Sron a Ghoire","WS /AC","High","High","-1",320,30,80,"4 - Light Showers","1",88,45,10,0,NA,NA,NA,0,3,4,10,2,NA,2,NA,-1.4
2011-12-18 14:00:00,"Creag Meagaidh","NN443895",-0.397315470200133,2.20795465565421,"750",90,32,"Coire a Chriochairein","WS/AS","High","High","-1.8",320,10,80,"6 - Snow Showers","1",106,20,NA,0,NA,NA,NA,0,4,4,6,2,NA,1,NA,-2.7
2011-12-19 13:15:00,"Creag Meagaidh","NN444895",-0.397313896490436,2.20885843399087,"860",50,39,"Coire a Chriochairein","TR & SR","Considerable +","Considerable -","-1.5",270,20,100,"8 - Snow","1",90,30,7,0,NA,NA,NA,0,2,4,8,2,NA,1,NA,-1.6
2011-12-20 13:30:00,"Creag Meagaidh","NN452881",-0.409879071431957,2.21611084755056,"800",100,30,"Sron a Ghoire","WS/ AS","High","Moderate","-1.5",300,30,100,"4 - Light Showers","1",100,30,10,1,NA,NA,NA,0,1,16,4,2,NA,1,NA,-1.7
2011-12-21 13:30:00,"Creag Meagaidh","NN473895",-0.397267978058409,2.23506800044961,"750",45,30,"Cairn Liath","WS/TR","Considerable +","Moderate","5",250,30,100,"2 - Trace","0",180,20,NA,1,NA,NA,NA,0,2,16,NA,2,NA,2,NA,NA
2011-12-22 12:05:00,"Creag Meagaidh","NN454881",-0.409875926973458,2.21791842210714,"840",95,41,"Death Gullies, Sron a Ghoire","TR & SR","Considerable -","Considerable -","1.9",255,45,100,"0 - None","0",110,17,NA,1,NA,NA,NA,0,2,16,NA,NA,NA,3,NA,0
2011-12-23 12:30:00,"Creag Meagaidh","NN471895",-0.397271162279433,2.23326044447261,"800",130,28,"Cairn Liath","WS","Considerable -","Considerable -","-0.3",300,15,80,"4 - Light Showers","1",190,15,NA,0,NA,NA,NA,0,2,20,4,2,NA,2,NA,-0.8
2011-12-24 12:00:00,"Creag Meagaidh","NN460898",-0.394593392449024,2.22331410178219,"800",90,32,"Balloon Gully","WS","Considerable +","Low","1.7",220,20,100,"4 - Light Showers","0",NA,30,NA,1,NA,NA,NA,0,3,20,NA,NA,NA,2,NA,0
2011-12-25 13:00:00,"Creag Meagaidh","NN461881",-0.409864901129108,2.22424493267103,"700",90,28,"Sron a Ghoire","WS","Low","Moderate","7.1",220,35,100,"","0",22,15,NA,1,NA,NA,NA,0,2,20,NA,NA,NA,2,NA,0
2011-12-26 12:15:00,"Creag Meagaidh","NN462897",-0.395488631897775,2.2251232506292,"750",145,29,"Balloon Gully","TR","Moderate","Low","6.5",240,60,100,"0 - None","0",85,7,NA,1,NA,NA,NA,0,2,20,NA,NA,NA,3,NA,0
2011-12-27 13:30:00,"Creag Meagaidh","NN448896",-0.396409188784473,2.21247196090149,"800",140,32,"Coire a Chriochairein. Boundary Wall gully","WS","Moderate","Moderate","0.5",220,15,100,"2 - Trace","0",30,NA,NA,0,NA,NA,NA,0,1,22,2,2,NA,1,NA,0
2011-12-28 12:00:00,"Creag Meagaidh","NN428885",-0.406322989853411,2.19441368279016,"850",95,32,"The Window. Coire Ardair","TR","Considerable -","Considerable -","1.2",225,60,100,"6 - Snow Showers","1",100,9,NA,1,NA,NA,NA,0,1,28,6,NA,NA,3,NA,0
2011-12-29 13:15:00,"Creag Meagaidh","NN459882",-0.408969633169815,2.22243577251405,"800",100,33,"NE ridge of Sron a Ghoire","TR","High","Considerable +","-1.8",280,40,100,"8 - Snow","1",120,30,NA,0,NA,NA,NA,0,2,36,8,NA,NA,2,NA,-1.5
2011-12-30 13:30:00,"Creag Meagaidh","NN473902",-0.390979051290401,2.23505677115618,"870",120,33,"Carn Liath","TR & SR","High","Considerable -","-0.9",170,30,100,"8 - Snow","1",100,30,NA,0,NA,NA,NA,0,3,44,8,NA,NA,1,NA,-1
2011-12-31 14:00:00,"Creag Meagaidh","NN443895",-0.397315470200133,2.20795465565421,"820",32,31,"Coire a Chriochairein","TR & SR","Considerable -","Considerable -","6.2",225,35,100,"4 - Light Showers","0",70,27,NA,1,NA,NA,NA,0,2,48,4,2,NA,3,NA,0
2012-01-01 11:30:00,"Creag Meagaidh","NN454878",-0.412571186897706,2.21792316645421,"850",50,37,"Bealach a Ghoire","TR & SR","Considerable -","Considerable +","-1.3",220,45,100,"4 - Light Showers","1",110,20,NA,0,NA,NA,NA,0,2,52,4,NA,NA,2,NA,NA
2012-01-02 12:45:00,"Creag Meagaidh","NN462903",-0.390098165163456,2.22511366343257,"900",45,25,"Carn Liath W slopes","KM","High","High","-4.1",220,30,100,"8 - Snow","1",175,25,NA,0,NA,NA,NA,0,1,60,8,3,0,1,NA,-4.2
2012-01-03 12:30:00,"Creag Meagaidh","NN452892",-0.399996513194404,2.21609342369217,"700",0,20,"Coire Adair","IP AF","High","Considerable +","0.1",0,30,100,"8 - Snow","1",140,40,NA,0,-3,270,80,0,4,80,10,NA,NA,NA,NA,NA
2012-01-04 12:25:00,"Creag Meagaidh","NN460882",-0.408968056218828,2.22333955906756,"770",90,36,"Bumslide Gully - top","TR & SR","Considerable -","Considerable -","2.6",220,40,100,"10 - Heavy Snow","1",120,50,NA,1,NA,NA,NA,0,1,90,10,NA,NA,3,NA,-0.1
2012-01-05 13:30:00,"Creag Meagaidh","NN452900",-0.392809247112969,2.21608071023296,"880",95,36,"The Min Window","TR","Considerable -","Considerable -","-2.7",300,35,95,"6 - Snow Showers","1",110,NA,50,0,NA,NA,NA,0,2,96,6,3,5,1,NA,-1.6
2012-01-06 12:55:00,"Creag Meagaidh","NN473898",-0.394572719850783,2.23506319120455,"850",100,30,"Shepherd's Crook. Carn Liath","TR & WC","Moderate","Considerable -","1.3",270,30,100,"0 - None","0",90,22,NA,1,NA,NA,NA,0,2,96,NA,NA,NA,2,NA,-0.2
2012-01-07 12:20:00,"Creag Meagaidh","NN462902",-0.390996574668567,2.22511526267139,"920",90,34,"SFG - Uinneag Coire a Chaorainn","TR","Considerable -","Considerable -","-2",270,45,100,"6 - Snow Showers","1",90,21,NA,0,NA,NA,NA,0,2,102,6,NA,NA,2,NA,-1.6
2012-01-08 12:35:00,"Creag Meagaidh","NN432885",-0.406316751426432,2.19802882268582,"750",45,25,"Coire Ardair","IP/A","Considerable +","Low","4.9",256,20,100,"","0",110,15,NA,1,3,256,40,0,4,102,0,3,0,10,NA,0
2012-01-09 12:55:00,"Creag Meagaidh","NN426885",-0.406326105206718,2.19260611276995,"930",50,30,"The Window","KM","Moderate","Moderate","-1.1",260,25,80,"2 - Trace","1",305,0,NA,0,NA,NA,NA,0,2,104,2,3,0,2,NA,0
2012-01-10 13:10:00,"Creag Meagaidh","NN435858",-0.430569265468694,2.20078242838573,"890",110,37,"Meall Coire Choile Rais","TR","Moderate","Low","1.7",225,35,100,"4 - Light Showers","0",100,6,NA,1,NA,NA,NA,0,1,108,4,3,NA,3,NA,0
2012-01-11 12:00:00,"Creag Meagaidh","NN498919",-0.375665724307937,2.25762344232707,"880",150,30,"Coire Dubh","TR","Moderate","","0.5",240,35,100,"0 - None","0",98,1,NA,1,NA,NA,NA,0,1,108,0,3,0,2,NA,0
2012-01-12 13:35:00,"Creag Meagaidh","NN472895",-0.397269570491756,2.23416422246725,"800",120,30,"Cairn Liath","WS","","","-0.5",270,20,100,"0 - None","0",200,8,NA,0,NA,NA,NA,0,3,110,2,3,NA,1,NA,NA
2012-01-13 13:00:00,"Creag Meagaidh","NN433886",-0.405416785470163,2.1989310364705,"780",110,25,"Coire Ardair","WS","","Low","-2.3",NA,0,2,"2 - Trace","0",60,10,NA,0,NA,NA,NA,0,2,112,2,3,NA,1,NA,-2.7
2012-01-14 13:00:00,"Creag Meagaidh","NN453876",-0.414369599887483,2.21702253611923,"780",130,28,"Bealach,Sron a Ghoire","WS","Low","Low","1.6",220,2,100,"2 - Trace","1",42,10,NA,0,NA,NA,NA,0,2,114,2,3,NA,1,NA,0
2012-01-15 13:35:00,"Creag Meagaidh","NN433880",-0.410807223562914,2.19894045528512,"800",40,39,"Easy Gully","TR","Low","Low","-1",190,5,50,"0 - None","0",90,4,NA,0,NA,NA,NA,0,2,114,0,4,NA,1,NA,-0.9
2012-01-16 12:45:00,"Creag Meagaidh","NN444860",-0.428758450107426,2.20891352077999,"800",180,30,"Creag Mhor Ridge, Coire Choille-rais","WS","Low","Low","-1",140,10,10,"0 - None","0",NA,6,NA,0,NA,NA,NA,0,3,114,NA,4,NA,NA,NA,NA
2012-01-17 13:30:00,"Creag Meagaidh","NN386842",-0.445018801751921,2.15652045241308,"989",100,30,"Beinn a Chaorainn","WS","Moderate","Moderate","0.5",220,10,100,"0 - None","0",235,8,NA,1,NA,NA,NA,0,2,114,NA,4,NA,2,NA,-0.3
2012-01-18 13:30:00,"Creag Meagaidh","NN455878",-0.412569615337266,2.21882695564937,"850",85,32,"Bealach a Ghoire","TR","Considerable +","Considerable +","-1",225,50,90,"6 - Snow Showers","1",80,14,NA,0,NA,NA,NA,0,2,120,6,NA,5,NA,NA,-0.9
2012-01-19 13:10:00,"Creag Meagaidh","NN443895",-0.397315470200133,2.20795465565421,"800",80,35,"Coire Chrochairein","TR & WS","Considerable +","Considerable -","-2.1",270,40,100,"8 - Snow","1",100,47,NA,0,NA,NA,NA,0,2,128,8,NA,5,1,NA,-1.9
2012-01-20 12:50:00,"Creag Meagaidh","NN452900",-0.392809247112969,2.21608071023296,"890",90,30,"The Min Window","TR & WS","Considerable -","Considerable -","-1",270,20,100,"6 - Snow Showers","1",200,60,NA,0,NA,NA,NA,0,1,134,6,NA,5,1,NA,-1.7
2012-01-21 14:48:00,"Creag Meagaidh","NN435864",-0.425178736356055,2.20077307351219,"950",90,25,"Coire Choille-rais","IP","Considerable +","Considerable -","-2",270,40,100,"6 - Snow Showers","1",120,10,NA,0,-3,250,80,0,3,134,NA,NA,NA,NA,NA,NA
2012-01-22 15:56:00,"Creag Meagaidh","NN427883",-0.40812135279891,2.19351303072383,"950",90,30,"Above the Window","IP","Considerable -","Considerable -","-0.5",270,30,100,"6 - Snow Showers","1",120,10,NA,0,-3,265,40,0,2,134,NA,4,5,1,NA,-0.8
2012-01-23 11:45:00,"Creag Meagaidh","NN428886",-0.405424587806573,2.19441211486297,"900",90,25,"Corrie Ardair, inner corrie","PN","Considerable +","Considerable -","-2",300,8,100,"4 - Light Showers","1",146,12,NA,0,-3.5,260,21,0,2,138,4,4,5,1,NA,-1.7
2012-01-24 11:50:00,"Creag Meagaidh","NN428885",-0.406322989853411,2.19441368279016,"900",90,28,"Coire Ardair","PN","Considerable +","Moderate","0",NA,NA,100,"0 - None","0",195,19,NA,1,0.9,200,31,0,2,138,NA,4,NA,2,NA,0
2012-01-25 11:30:00,"Creag Meagaidh","NN428884",-0.407221392543612,2.19441525017583,"860",40,25,"Inner Corrie","PN","Considerable +","Moderate","2.7",220,8,100,"","0",80,14,NA,0,1.4,221,37,0,3,138,NA,4,NA,2,2,0
2012-01-26 13:30:00,"Creag Meagaidh","NN428885",-0.406322989853411,2.19441368279016,"900",90,32,"The Window","TR","Considerable -","Considerable -","-4",240,25,100,"4 - Light Showers","1",90,23,NA,0,NA,NA,NA,0,4,142,4,NA,NA,1,NA,-4.3
2012-01-27 12:10:00,"Creag Meagaidh","NN475903",-0.390077440188198,2.23686271030241,"930",140,30,"SE flank of Carn Liath","TR","Considerable -","Considerable -","-4.1",350,10,50,"4 - Light Showers","1",100,30,NA,0,NA,NA,NA,0,3,146,4,NA,5,1,NA,-4.5
2012-01-28 13:35:00,"Creag Meagaidh","NN449899",-0.393712394318337,2.21337097436224,"1000",142,40,"Above Min Window","TR/AS","Considerable +","Moderate","-1.7",225,5,30,"0 - None","0",93,22,NA,0,NA,NA,NA,0,4,146,NA,4,10,1,NA,-2
2012-01-29 13:30:00,"Creag Meagaidh","NN440871",-0.418882030458619,2.20528110432607,"935",230,31,"Creag Mhor Ridge","TR & WC","Considerable -","Moderate","-2.3",160,15,95,"","0",73,20,NA,0,NA,NA,NA,0,3,146,NA,NA,10,1,NA,-1.4
2012-01-30 12:10:00,"Creag Meagaidh","NN452882",-0.408980653829681,2.21610926629784,"860",350,39,"Death Gullies. Sron a Ghoire","TR","Moderate","Considerable +","-4.8",145,30,80,"2 - Trace","1",51,17,NA,0,NA,NA,NA,0,2,148,2,NA,NA,1,NA,-4.7
2012-01-31 13:15:00,"Creag Meagaidh","NN427885",-0.406324547851745,2.19350989778608,"1000",320,30,"Above The Window","TR","Considerable +","Considerable -","-3.5",145,50,100,"2 - Trace","1",50,40,NA,0,NA,NA,NA,0,4,150,2,NA,10,1,NA,-3.3
2012-02-01 13:45:00,"Creag Meagaidh","NN427884",-0.407222950003758,2.19351146452561,"960",355,37,"The Window","TR & WS","Considerable -","","-4",145,20,5,"0 - None","0",65,27,NA,0,NA,NA,NA,0,3,150,NA,NA,10,1,NA,-3.9
2012-02-02 13:45:00,"Creag Meagaidh","NN430876",-0.414405528966372,2.19623535135259,"1027",340,20,"Top Easy Gully","WS","","Low","-6",120,8,20,"","0",100,10,NA,0,NA,NA,NA,0,4,150,NA,NA,NA,NA,NA,NA
2012-02-03 13:45:00,"Creag Meagaidh","NN427883",-0.40812135279891,2.19351303072383,"1020",350,30,"Top of Cinderella","WS","Considerable -","Considerable -","-5.5",120,2,0,"","1",100,2,NA,0,NA,NA,NA,0,4,150,NA,6,NA,NA,NA,NA
2012-02-04 12:15:00,"Creag Meagaidh","NN448904",-0.389221960765644,2.21245925073075,"900",360,38,"Coire A Chriochairein","SA","High","Considerable -","-1.3",190,40,100,"8 - Snow","1",90,5,NA,0,-4.1,222,46,0,2,158,8,6,10,1,NA,-2.3
2012-02-05 11:50:00,"Creag Meagaidh","NN429884",-0.407219834440326,2.195319035814,"920",50,40,"Foot of Pumpkin","SA","Considerable -","Considerable -","-0.2",240,15,100,"4 - Light Showers","1",280,15,NA,0,-3.5,255,31,0,3,161,4,6,0,1,NA,-1.4
2012-02-06 12:55:00,"Creag Meagaidh","NN462903",-0.390098165163456,2.22511366343257,"920",60,30,"Carn Liath: West slopes","KM","Considerable -","Moderate","-1.4",40,3,10,"0 - None","0",174,10,NA,0,NA,NA,NA,0,2,161,0,6,15,1,NA,-1.9
2012-02-07 12:35:00,"Creag Meagaidh","NN435861",-0.427873998041186,2.20077775339306,"950",95,33,"Meall Coire Choile Rais","TR","Moderate","Moderate","1",180,20,3,"","0",73,11,NA,0,NA,NA,NA,0,1,161,NA,NA,NA,1,NA,-0.5
2012-02-08 13:00:00,"Creag Meagaidh","NN431887",-0.404521505316358,2.19712189745522,"800",140,28,"Inner Coire Ardair","WS / AS","Moderate","Moderate","-2.3",220,15,100,"","0",50,8,NA,1,NA,NA,NA,0,2,161,NA,6,NA,1,NA,NA
2012-02-09 12:55:00,"Creag Meagaidh","NN450900",-0.392812409650552,2.21427316023274,"930",90,35,"Min Window","KM","Moderate","Moderate","2",280,3,100,"0 - None","0",230,12,NA,0,NA,NA,NA,0,3,161,0,6,10,2,NA,-0.4
2012-02-10 14:00:00,"Creag Meagaidh","NN448897",-0.395510783019325,2.21247037404101,"920",80,30,"Wall Gully, Coire Chriochairein","TR","Moderate","Moderate","1",225,20,100,"0 - None","0",700,8,NA,0,NA,NA,NA,0,3,161,0,6,5,2,NA,0
2012-02-11 13:00:00,"Creag Meagaidh","NN461884",-0.40716963554553,2.22424016983778,"750",100,30,"Sron a Ghoire","WS","Moderate","Low","3",200,2,100,"","1",70,6,NA,0,NA,NA,NA,0,3,161,NA,6,NA,2,NA,0
2012-02-12 13:00:00,"Creag Meagaidh","NN461902",-0.390998163819667,2.22421148909922,"920",90,30,"Cairn Liath, Sharks Gultch","WS","Moderate","Low","-0.3",NA,NA,80,"0 - None","1",67,4,NA,0,NA,NA,NA,0,1,161,NA,6,NA,2,NA,NA
2012-02-13 12:35:00,"Creag Meagaidh","NN454882",-0.408977508283459,2.21791683956344,"800",360,37,"Death Gullies. Sron a Ghoire","TR","Moderate","Low","0.7",300,20,100,"2 - Trace","0",65,8,NA,0,NA,NA,NA,0,2,163,2,NA,NA,1,NA,NA
2012-02-14 12:30:00,"Creag Meagaidh","NN453898",-0.394604478605844,2.21698766815955,"750",160,30,"Below Min Window","WS","Low","Low","3.5",290,30,100,"0 - None","0",60,17,NA,0,NA,NA,NA,0,2,163,NA,6,NA,2,NA,0
2012-02-15 10:30:00,"Creag Meagaidh","NN428885",-0.406322989853411,2.19441368279016,"930",50,35,"Inner Corrie, Coire Ardair","SN","Moderate","Low","1.2",310,20,100,"0 - None","0",170,15,NA,0,NA,NA,NA,0,3,163,0,8,0,2,NA,0
2012-02-16 13:16:00,"Creag Meagaidh","NN442895",-0.397317043264217,2.20705087730541,"800",90,25,"Coire a' Chriochairein","TR/SN","Moderate","Moderate","2.4",260,10,20,"0 - None","0",85,7,NA,0,NA,NA,NA,0,3,163,0,8,0,2,NA,0
2012-02-17 13:00:00,"Creag Meagaidh","NN436858",-0.430567716903156,2.2016862306609,"900",95,31,"Meall Coire Choile Rais","TR","Considerable +","Considerable +","0.2",230,40,100,"4 - Light Showers","1",55,6,NA,1,NA,NA,NA,0,1,167,4,NA,NA,1,NA,0
2012-02-18 12:30:00,"Creag Meagaidh","NN462900",-0.392793395620186,2.22511845950177,"850",120,40,"Balloon Gully - top","TR & AS","Considerable +","Considerable +","-4",260,35,90,"8 - Snow","1",100,41,NA,0,NA,NA,NA,0,2,175,8,8,5,1,NA,-2.8
2012-02-19 14:00:00,"Creag Meagaidh","NN442895",-0.397317043264217,2.20705087730541,"870",90,35,"Lifa Gully. Coire Chriochairein","TR","High","High","-4.2",270,10,40,"8 - Snow","1",110,60,NA,0,NA,NA,NA,0,2,183,8,NA,5,1,NA,-3
2012-02-20 12:35:00,"Creag Meagaidh","NN453897",-0.395502886441295,2.21698925881131,"830",140,30,"Min Window approaches","TR & AS","Considerable +","Considerable -","5",225,60,100,"6 - Snow Showers","0",63,30,NA,1,NA,NA,NA,0,1,186,6,NA,NA,3,NA,-1
2012-02-21 13:00:00,"Creag Meagaidh","NN443894",-0.398213874545906,2.20795623818079,"800",80,30,"Coire Chriochairein","TR & AS","Considerable -","Moderate","5.1",220,30,100,"0 - None","0",84,7,NA,1,NA,NA,NA,0,1,186,0,8,NA,10,NA,0
2012-02-22 12:20:00,"Creag Meagaidh","NN419876",-0.414422592501951,2.18629365203056,"1090",20,25,"CM, not far from summit","PN","Moderate","Moderate","5",262,12,100,"","0",100,12,NA,1,NA,NA,NA,0,2,186,NA,8,NA,2,NA,0
2012-02-23 11:00:00,"Creag Meagaidh","NN440896",-0.396421785379227,2.20524173944579,"820",110,25,"Coire a Chriochairein","PN","Moderate","Low","6.8",100,10,100,"","0",110,2,NA,1,4.7,240,43,0,2,186,NA,8,NA,NA,NA,0
2012-02-24 12:30:00,"Creag Meagaidh","NN452877",-0.41347274826404,2.21611716709248,"950",50,29,"Sron a Ghoire summit slopes","TR","Moderate","Moderate","-0.7",250,55,60,"2 - Trace","1",61,2,NA,0,NA,NA,NA,0,2,182,2,NA,NA,2,NA,0
2012-02-25 12:10:00,"Creag Meagaidh","NN386852",-0.436034759357712,2.15650524950054,"1000",50,37,"S. Ridge Beinn a Chaorainn","TR","Moderate","Moderate","0",225,35,100,"2 - Trace","1",90,11,NA,0,NA,NA,NA,0,2,184,2,NA,NA,1,NA,0
2012-02-26 13:00:00,"Creag Meagaidh","NN459882",-0.408969633169815,2.22243577251405,"790",90,31,"NE Ridge Sron a Ghoire","TR","Moderate","Low","4",220,30,100,"0 - None","0",72,3,NA,0,NA,NA,NA,0,1,184,NA,NA,NA,2,NA,0
2012-02-27 13:15:00,"Creag Meagaidh","NN408855",-0.43330606549096,2.17638438068112,"850",105,33,"Creag na Cailliche. Moy Corrie","TR","Low","Low","6",225,25,100,"0 - None","0",50,4,NA,1,NA,NA,NA,0,2,184,NA,NA,NA,2,NA,0
2012-02-28 12:15:00,"Creag Meagaidh","NN428886",-0.405424587806573,2.19441211486297,"850",90,32,"Approaches to The Window","TR","Low","Low","6.3",230,20,100,"","0",90,2,NA,0,NA,NA,NA,0,1,184,NA,NA,NA,1,NA,0
2012-02-29 12:50:00,"Creag Meagaidh","NN437856",-0.432363017999678,2.20259314943012,"790",100,28,"The Notch. Meall Coire Choile Rais","TR","Moderate","Low","3",220,20,100,"","0",66,2,NA,0,NA,NA,NA,0,1,184,NA,NA,NA,1,NA,0
2012-03-01 13:00:00,"Creag Meagaidh","NN461886",-0.405372795038794,2.22423699187115,"650",80,30,"Sron a Ghoire","WS /TR","Low","Low","7.5",NA,220,80,"","0",20,5,NA,1,NA,NA,NA,0,2,184,NA,10,NA,2,NA,0
2012-03-02 13:15:00,"Creag Meagaidh","NN435885",-0.406312065850815,2.20074017748074,"750",160,28,"Coire Ardair","WS","Moderate","Low","4.4",180,10,90,"","0",25,5,NA,0,NA,NA,NA,0,1,184,NA,10,NA,2,NA,NA
2012-03-03 12:45:00,"Creag Meagaidh","NN453899",-0.393706071416693,2.21698607696071,"800",120,30,"Min Window","WS","Moderate","Moderate","2.7",120,25,100,"2 - Trace","1",30,5,NA,0,NA,NA,NA,0,1,186,2,10,NA,NA,NA,NA
2012-03-04 13:00:00,"Creag Meagaidh","NN454881",-0.409875926973458,2.21791842210714,"850",50,34,"Death Gullies. Sron a Ghoire","TR","Moderate","Low","-3",270,15,30,"4 - Light Showers","0",80,9,NA,0,NA,NA,NA,0,3,190,4,10,5,1,NA,-2
2012-03-05 12:30:00,"Creag Meagaidh","NN463903",-0.390096574819218,2.22601743634231,"900",100,30,"Cairn Liath","WS","Moderate","Low","-1.5",220,5,20,"2 - Trace","1",60,5,NA,0,NA,NA,NA,0,2,192,2,10,NA,1,NA,NA
2012-03-06 13:00:00,"Creag Meagaidh","NN445878",-0.412585302058334,2.20978906315005,"800",320,30,"Coire Ardair","WS","Moderate","Moderate","-0.5",320,40,100,"2 - Trace","1",60,10,NA,1,NA,NA,NA,0,2,194,2,10,NA,1,NA,NA
2012-03-07 12:45:00,"Creag Meagaidh","NN437859",-0.429667743506479,2.20258847385554,"800",120,30,"Choillie-Rais","WS","Considerable -",NA,"-1.6",270,40,100,"6 - Snow Showers","1",60,8,NA,1,NA,NA,NA,NA,NA,200,6,10,NA,1,NA,NA
2012-03-07 12:45:00,"Creag Meagaidh","NN437859",-0.429667743506479,2.20258847385554,"800",120,39,"Coire Choillie-Rais","WS","Considerable -","Considerable -","-1.6",270,40,100,"6 - Snow Showers","1",60,8,NA,1,NA,NA,NA,0,3,200,6,10,NA,1,NA,-0.8
2012-03-08 12:45:00,"Creag Meagaidh","NN444894",-0.398212301377933,2.20886001716584,"800",90,32,"Coire a Chriochairein","WS / TR","Considerable -","Moderate","2",270,25,100,"","0",90,12,NA,1,NA,NA,NA,0,3,200,NA,10,NA,2,NA,NA
2012-03-09 12:20:00,"Creag Meagaidh","NN459881",-0.409868054583008,2.22243735828524,"800",90,38,"East face Sron a Ghoire","TR","Moderate","Low","3.1",230,30,90,"0 - None","0",71,11,NA,1,NA,NA,NA,0,3,200,NA,NA,NA,2,NA,0
2012-03-10 12:45:00,"Creag Meagaidh","NN463898",-0.394588631544293,2.22602543029427,"850",90,30,"Cairn Liath","WS","Low","Low","2.3",270,30,100,"0 - None","0",38,10,NA,1,NA,NA,NA,0,1,200,NA,10,NA,2,NA,NA
2012-03-11 13:05:00,"Creag Meagaidh","NN453898",-0.394604478605844,2.21698766815955,"800",140,30,"Coire Ardair - Min Window approaches","TR","Low","Low","4",220,20,100,"","0",62,4,NA,0,NA,NA,NA,0,1,200,NA,10,0,2,NA,0
2012-03-12 12:35:00,"Creag Meagaidh","NN431885",-0.406318311998227,2.19712503773002,"800",90,27,"Inner Coire. Coire Ardair","TR","Low","Low","2.6",270,15,100,"","0",71,4,NA,0,NA,NA,NA,0,1,200,NA,NA,NA,2,NA,0
2012-03-13 13:00:00,"Creag Meagaidh","NN458898",-0.394596563153941,2.22150654937965,"800",70,30,"Cairn Liath","WS","Low","Low","6.8",270,5,NA,"","0",80,5,NA,0,NA,NA,NA,0,1,200,0,10,NA,2,NA,NA
2012-03-14 12:35:00,"Creag Meagaidh","NN437856",-0.432363017999678,2.20259314943012,"800",140,33,"Meall Coire Choile Rais","TR","Low","Low","2",220,15,100,"","0",55,4,NA,0,NA,NA,NA,0,1,200,NA,NA,NA,1,NA,0
2012-03-15 13:30:00,"Creag Meagaidh","NN443895",-0.397315470200133,2.20795465565421,"790",85,28,"Coire Chriochairein","TR","Low","","4.5",230,25,100,"","0",71,7,NA,0,NA,NA,NA,0,1,200,NA,NA,NA,2,NA,0
2012-03-16 13:30:00,"Creag Meagaidh","NN445873",-0.417077390326999,2.20979693046145,"830",100,28,"Coire Chomharsain","TR","","Low","1.8",220,20,100,"","0",57,7,NA,1,NA,NA,NA,0,1,200,NA,NA,NA,2,NA,0
2012-03-17 12:15:00,"Creag Meagaidh","NN462898",-0.394590219158853,2.22512165413581,"860",100,37,"Balloon Gully. Coire Ardair","TR","Moderate","Low","-0.7",250,15,40,"2 - Trace","1",62,3,NA,0,NA,NA,NA,0,3,202,2,12,0,1,NA,-0.3
2012-03-18 13:15:00,"Creag Meagaidh","NN443895",-0.397315470200133,2.20795465565421,"800",85,33,"Coire Chriochairein","TR","Low",NA,"-0.5",235,10,60,"2 - Trace","1",81,2,NA,0,NA,NA,NA,0,3,204,2,12,0,1,NA,-0.7
2012-03-22 13:00:00,"Creag Meagaidh","NN443892",-0.400010685173404,2.20795940159938,"730",100,25,"Coire Chriochairein","TR","Low","Low","10",180,10,0,"0 - None","0",50,6,NA,0,NA,NA,NA,0,2,204,NA,NA,NA,2,NA,0
2012-03-23 12:15:00,"Creag Meagaidh","NN453897",-0.395502886441295,2.21698925881131,"800",120,29,"Towards Min Window. Coire Ardair","TR","Low","Low","7",175,15,100,"","0",47,6,NA,0,NA,NA,NA,0,3,204,NA,NA,NA,2,NA,0
2012-03-24 12:05:00,"Creag Meagaidh","NN437855",-0.43326144410491,2.2025947068678,"800",145,32,"Coire Choile Rais","TR","Low",NA,"14",220,10,30,"","0",60,5,NA,0,NA,NA,NA,0,2,204,0,12,0,2,NA,0
2012-04-03 11:30:00,"Creag Meagaidh","NN479896",-0.396359986556951,2.24048906166351,"750",220,30,"Cairn Liath","WS","Moderate","Moderate","-2.5",45,25,50,"4 - Light Showers","1",35,30,NA,0,NA,NA,NA,0,2,208,4,15,NA,NA,NA,-1.8
2012-04-04 12:30:00,"Creag Meagaidh","NN448897",-0.395510783019325,2.21247037404101,"800",220,30,"Coire a Chriochairein","WS","Moderate","Low","-1.5",360,5,50,"2 - Trace","1",40,30,NA,0,NA,NA,NA,0,2,210,2,20,NA,1,NA,-1.2
2012-04-05 12:30:00,"Creag Meagaidh","NN466898",-0.394583864822684,2.22873675869615,"800",270,30,"Cairn Liath , Balloon Gully","WS","Moderate","Low","2",360,5,90,"0 - None","1",NA,30,NA,1,NA,NA,NA,0,1,210,NA,20,NA,1,NA,-0.1
2012-04-06 11:35:00,"Creag Meagaidh","NN465900",-0.392788627560579,2.22782978404394,"890",200,27,"SW flank Carn Liath","TR","Moderate","Low","2.5",270,10,100,"4 - Light Showers","0",30,20,NA,1,NA,NA,NA,0,1,214,4,20,NA,2,NA,0
2012-04-07 11:00:00,"Creag Meagaidh","NN479896",-0.396359986556951,2.24048906166351,"750",220,29,"Car Liath","TR","Low","Low","2.3",320,10,100,"2 - Trace","0",34,4,NA,0,NA,NA,NA,0,1,216,2,20,0,1,NA,0
2012-04-08 10:00:00,"Creag Meagaidh","NN427885",-0.406324547851745,2.19350989778608,"860",90,31,"The Window","TR","Considerable -",NA,"3",220,20,100,"","0",35,5,NA,0,NA,NA,NA,0,1,216,NA,20,NA,1,NA,0
2012-12-13 13:15:00,"Creag Meagaidh","NN425886",-0.405429261485384,2.19170076175367,"820",100,32,"The Window","TR","Considerable +","Considerable -","-3.2",175,15,100,"2 - Trace","1",600,20,NA,0,NA,175,15,0,4,2,2,NA,10,0,NA,-6
2012-12-14 12:40:00,"Creag Meagaidh","NN469897",-0.395477508849324,2.23144968802461,"800",240,30,"Carn Liath - Coire Ardair flank","TR","Considerable -","Moderate","-1",160,30,100,"2 - Trace","1",61,17,NA,0,NA,NA,NA,0,4,4,2,NA,10,1,NA,-1.8
2012-12-15 13:45:00,"Creag Meagaidh","NN477895",-0.397261601868275,2.23868311225609,"750",220,30,"Sheperds Crook, Cairn Liath","WS","Moderate","Moderate","1",270,20,100,"2 - Trace","1",35,10,NA,0,NA,270,20,0,2,6,2,2,NA,1,NA,-0.8
2012-12-16 13:00:00,"Creag Meagaidh","NN456879",-0.411669621429442,2.21972916264101,"800",80,30,"Bealach Sron A Ghoire","WS","Moderate","Low","1.5",220,10,100,"2 - Trace","0",42,20,NA,0,NA,NA,220,0,1,8,2,NA,NA,1,NA,-0.8
2012-12-17 13:30:00,"Creag Meagaidh","NN448897",-0.395510783019325,2.21247037404101,"900",92,38,"Wall Gully, Coire Chriochairein","TR","Low","Low","-0.4",90,10,100,"0 - None","0",80,22,NA,0,NA,NA,NA,0,1,8,0,2,NA,1,1,-0.8
2012-12-18 13:15:00,"Creag Meagaidh","NN428885",-0.406322989853411,2.19441368279016,"89",100,27,"The Window","TR","Low",NA,"1",180,10,30,"0 - None","0",73,1,NA,0,NA,NA,NA,0,1,8,0,NA,NA,1,1,-1.3
2012-12-20 13:30:00,"Creag Meagaidh","NN462903",-0.390098165163456,2.22511366343257,"930",310,30,"Sharks Gultch, Cairn Liath","WS / AS","Considerable -","Considerable -","-1.5",160,50,100,"4 - Light Showers","1",NA,20,NA,0,-1.5,160,50,0,1,14,4,NA,NA,1,NA,-1.3
2012-12-21 13:15:00,"Creag Meagaidh","NN451881",-0.409880642697427,2.21520706025399,"890",310,35,"Bealach a ghoire, Sron a Ghoire","TR","Considerable +","Considerable -","-2",115,10,100,"4 - Light Showers","1",75,22,NA,0,NA,NA,NA,0,3,18,4,NA,NA,1,3,-2
2012-12-22 13:25:00,"Creag Meagaidh","NN459901",-0.391899748696105,2.22240553865801,"880",270,25,"Top of Triple Burns, Coire Ardair","TR","Considerable +","Considerable -","0",140,35,100,"4 - Light Showers","1",80,30,NA,0,NA,NA,NA,0,2,22,4,2,NA,2,3,0
2012-12-23 12:30:00,"Creag Meagaidh","NN461902",-0.390998163819667,2.22421148909922,"920",20,38,"Sharks Gultch, Cairn Liath","WS/ MA","Considerable -","Moderate","1",240,40,100,"","0",240,22,NA,1,NA,NA,NA,0,1,22,NA,2,NA,3,NA,0
2012-12-24 13:00:00,"Creag Meagaidh","NN432882",-0.409011967891178,2.19803353096933,"750",80,NA,"Base of Staghorn Gully Coire Ardair","WS","Considerable -","Moderate","1.5",240,15,100,"2 - Trace","0",42,15,NA,0,NA,NA,NA,0,1,22,NA,NA,NA,2,NA,0
2012-12-25 12:00:00,"Creag Meagaidh","NN454878",-0.412571186897706,2.21792316645421,"800",90,27,"Sron a Ghoire","WS","Moderate","Moderate","1.5",225,10,100,"4 - Light Showers","0",40,15,NA,0,NA,NA,NA,0,2,26,4,NA,NA,2,NA,0
2012-12-26 13:00:00,"Creag Meagaidh","NN455873",-0.417061730766221,2.2188348551684,"800",135,30,"Coire Chomharsain","TR","Moderate","Moderate","-1.8",NA,10,50,"2 - Trace","0",80,3,NA,0,NA,NA,NA,0,3,28,2,NA,NA,1,NA,-1.2
2012-12-27 13:00:00,"Creag Meagaidh","NN442894",-0.398215447068488,2.2070524591836,"880",90,33,"Lifa Gully. Coire Chriochairein","TR","Considerable +","Considerable +","-6",130,5,100,"2 - Trace","1",60,8,NA,0,NA,NA,NA,0,4,30,2,NA,NA,1,2,-3.6
2012-12-28 12:35:00,"Creag Meagaidh","NN462899",-0.39369180706625,2.22512005709334,"850",130,40,"Balloon Gully, Coire Ardair","TR","Considerable -","Considerable -","4",225,50,100,"4 - Light Showers","0",55,30,NA,1,NA,NA,NA,0,3,34,4,2,NA,4,3,0
2012-12-29 11:00:00,"Creag Meagaidh","NN441895",-0.39731861568269,2.20614709894446,"900",80,37,"Lifa Gully. Coire Chriochairein","TR","Considerable +","Considerable +","0.5",270,25,100,"2 - Trace","0",40,9,NA,0,NA,NA,NA,0,2,36,2,2,NA,2,3,0
2012-12-30 13:00:00,"Creag Meagaidh","NN462903",-0.390098165163456,2.22511366343257,"910",40,25,"Carn Liath: West Ridge","KM","Considerable +","Moderate","-1.9",220,30,100,"8 - Snow","1",215,30,NA,0,NA,NA,NA,0,2,44,8,2,5,1,NA,-2
2012-12-31 13:15:00,"Creag Meagaidh","NN434863",-0.426078706906463,2.19987083493233,"880",10,28,"Meall Coire Choile Rais","TR & SR","Considerable +","Considerable +","-0.5",270,20,100,"8 - Snow","0",87,16,NA,0,NA,NA,NA,0,2,52,8,NA,NA,4,NA,0
2013-01-01 13:14:00,"Creag Meagaidh","NN454879",-0.411672766280803,2.21792158555253,"860",54,38,"Bealach a Ghoire","TR & SR","Considerable +","Considerable -","0",270,25,95,"8 - Snow","1",75,40,NA,0,NA,NA,NA,0,2,60,8,NA,NA,1,3,-1.1
2013-01-02 12:55:00,"Creag Meagaidh","NN448897",-0.395510783019325,2.21247037404101,"920",80,35,"Coire a' Chriochairein: Wall Gully","KM","Considerable -","Moderate","4.7",260,15,100,"","0",177,30,NA,1,NA,NA,NA,0,2,66,6,3,0,10,NA,0
2013-01-03 12:45:00,"Creag Meagaidh","NN462903",-0.390098165163456,2.22511366343257,"910",70,30,"Carn Liath: West ridge","KM","Moderate","Moderate","2.8",240,20,30,"0 - None","0",196,12,NA,0,NA,NA,NA,0,1,66,0,3,0,2,NA,0
2013-01-04 12:15:00,"Creag Meagaidh","NN448898",-0.394612377900246,2.21246878663457,"900",100,32,"Wall Gully. Coire Chriochairein","TR","Moderate","Moderate","3.6",270,30,100,"0 - None","0",90,10,NA,0,NA,NA,NA,0,1,66,NA,NA,NA,2,NA,0
2013-01-05 12:30:00,"Creag Meagaidh","NN436858",-0.430567716903156,2.2016862306609,"860",140,30,"Meall Coire Choile Rais","TR","Moderate","Moderate","5",225,30,100,"","0",100,6,NA,0,NA,NA,NA,0,1,66,NA,3,NA,1,NA,0
2013-01-06 12:30:00,"Creag Meagaidh","NN428885",-0.406322989853411,2.19441368279016,"900",90,33,"Inner Coire, Coire Ardair","TR","Moderate","Moderate","4",240,30,100,"","0",60,6,NA,1,NA,NA,NA,0,1,66,NA,3,NA,2,2,0
2013-01-07 12:45:00,"Creag Meagaidh","NN446867",-0.422466357571514,2.2107101496217,"900",90,27,"Creag Mhor Ridge","TR","Moderate","Low","4.3",225,15,100,"0 - None","0",102,8,NA,1,NA,NA,NA,0,1,66,NA,NA,NA,4,2,0
2013-01-08 13:00:00,"Creag Meagaidh","NN450874",-0.416171146906485,2.21431431737682,"900",180,25,"S flank Sron aGhoire. Coire Chomharsainn","TR","Low","Low","2.7",240,30,100,"","0",70,4,NA,1,NA,NA,NA,0,2,66,NA,NA,NA,2,1,0
2013-01-09 11:00:00,"Creag Meagaidh","NN436857",-0.431466141194056,2.20168778854564,"820",130,24,"Meall Coire Choile Rais","TR","Low","Low","2",270,30,100,"2 - Trace","0",60,3,NA,1,NA,NA,NA,0,1,68,2,NA,NA,1,1,0
2013-01-10 13:00:00,"Creag Meagaidh","NN448897",-0.395510783019325,2.21247037404101,"800",150,30,"Coire a Chriochairein","WS","Low","Low","1",150,5,100,"0 - None","0",48,4,NA,0,NA,NA,NA,0,1,68,0,NA,NA,1,NA,NA
2013-01-11 12:00:00,"Creag Meagaidh","NN461898",-0.394591806127097,2.22421787796512,"800",140,35,"Balloon Gully. Coire Ardair","TR","Moderate","Low","-0.5",NA,10,100,"2 - Trace","0",45,1,NA,0,NA,NA,NA,0,1,70,2,NA,NA,2,NA,-0.1
2013-01-12 16:43:00,"Creag Meagaidh","NN464463",-0.785455019143878,2.22757234634007,"920",340,28,"Cairn Liath, Sharks Gultch","WS","Moderate","Moderate","-2.7",150,5,80,"2 - Trace","0",40,2,NA,0,NA,NA,NA,0,4,72,2,3,NA,NA,NA,-1.6
2013-01-13 13:00:00,"Creag Meagaidh","NN458883",-0.408072789252692,2.22153040027442,"800",60,30,"Sron a Ghoire, NE Gullies","WS","Considerable -","Considerable -","-1.8",180,10,100,"6 - Snow Showers","1",44,12,NA,0,NA,NA,NA,0,4,78,6,3,NA,1,NA,-0.7
2013-01-14 13:25:00,"Creag Meagaidh","NN451898",-0.394607640262492,2.21518011558611,"900",70,24,"The Min Window","TR","Considerable -","Moderate","-3.6",270,20,100,"6 - Snow Showers","1",60,40,NA,0,NA,NA,NA,0,4,84,6,NA,NA,0,3,-3.5
2013-01-15 13:00:00,"Creag Meagaidh","NN445868",-0.421569494613871,2.20980478413927,"850",90,30,"Creag Mhor Ridge","WS","Moderate","Moderate","-2",160,2,5,"4 - Light Showers","1",55,24,NA,0,NA,NA,NA,0,2,88,4,NA,NA,1,NA,-3.4
2013-01-16 13:30:00,"Creag Meagaidh","NN450898",-0.39460922012137,2.21427633928111,"800",80,30,"Boundary Wall Gully","WS","Considerable -","Considerable -","-3.2",160,2,100,"2 - Trace","0",43,27,NA,0,NA,NA,NA,0,2,90,2,NA,NA,1,2,-4.5
2013-01-17 16:03:00,"Creag Meagaidh","NN453882",-0.408979081377942,2.21701305293673,"850",50,28,"Death Gullies. Sron a Ghoire","TR","Considerable +","Considerable +","-3.3",140,20,50,"","1",60,45,NA,0,NA,NA,NA,0,3,90,NA,4,10,1,3,-4.2
2013-01-18 12:45:00,"Creag Meagaidh","NN390842",-0.44501276246908,2.16013570464476,"850",50,30,"Beinn a Chaorainn","TR & SR","Considerable +","Considerable -","-4.1",190,35,100,"2 - Trace","1",50,40,NA,0,NA,NA,NA,0,4,92,2,4,10,1,3,-5.4
2013-01-19 12:30:00,"Creag Meagaidh","NN449902",-0.391017183151462,2.21336620528006,"950",300,31,"Min Coire","TR & SR","Considerable -","Considerable -","-4.7",165,25,100,"6 - Snow Showers","1",75,30,NA,0,NA,NA,NA,0,2,98,6,4,10,0,3,-5.1
2013-01-20 12:45:00,"Creag Meagaidh","NN451900",-0.392810828705131,2.21517693523895,"900",280,25,"The Min Window","TR","Considerable -","Considerable +","-5.7",145,25,100,"2 - Trace","1",72,45,NA,0,NA,NA,NA,0,3,100,2,3,10,0,3,-5.2
2013-01-21 13:00:00,"Creag Meagaidh","NN469897",-0.395477508849324,2.23144968802461,"800",270,30,"Cairn Liath","WS","Considerable +","Considerable -","-4.2",120,20,100,"4 - Light Showers","1",46,30,NA,0,NA,NA,NA,0,2,104,4,4,10,0,NA,-4.2
2013-01-22 11:00:00,"Creag Meagaidh","NN445893",-0.399109133639405,2.2097653794168,"800",80,30,"Coire a Chriochairein","WS","Considerable +","Considerable -","-3.8",170,15,100,"4 - Light Showers","1",50,30,NA,0,NA,NA,NA,0,2,108,4,NA,NA,0,NA,NA
2013-01-23 12:45:00,"Creag Meagaidh","NN454881",-0.409875926973458,2.21791842210714,"850",280,32,"NE Gullies. Sron a Ghoire","TR","Considerable -","Considerable -","-3.6",165,10,90,"4 - Light Showers","1",65,50,NA,0,NA,NA,NA,0,3,112,4,NA,10,0,3,-3.3
2013-01-24 12:30:00,"Creag Meagaidh","NN442895",-0.397317043264217,2.20705087730541,"800",50,30,"Coire Chriochairein. Lifa Gully.","TR","High","High","-4.7",180,5,100,"2 - Trace","1",70,25,NA,0,NA,NA,NA,0,3,114,2,NA,10,0,3,-4.4
2013-01-25 13:05:00,"Creag Meagaidh","NN472895",-0.397269570491756,2.23416422246725,"750",95,25,"Carn Liath","TR & SR","High","Considerable +","-1.8",200,30,100,"8 - Snow","1",60,55,NA,0,NA,NA,NA,0,3,122,8,NA,10,1,4,-1.7
2013-01-26 13:45:00,"Creag Meagaidh","NN440875",-0.415288364264166,2.20527482880213,"890",30,37,"NE of Bellevue Buttress","TR & SR","Considerable +","Considerable -","-0.9",225,35,100,"8 - Snow","1",80,40,NA,0,NA,NA,NA,0,2,130,8,NA,10,1,3,-1.2
2013-01-27 12:45:00,"Creag Meagaidh","NN442895",-0.397317043264217,2.20705087730541,"870",85,32,"Coire Chriochairein","TR & SR","Considerable +","Considerable +","-1.1",220,40,100,"6 - Snow Showers","1",70,33,NA,1,NA,NA,NA,0,2,136,6,NA,NA,2,3,-0.7
2013-01-28 13:05:00,"Creag Meagaidh","NN454880",-0.41077434630598,2.2179200041035,"850",80,30,"Bealach a Ghoire","TR & SR","Considerable +","Considerable -","-0.7",225,60,100,"8 - Snow","1",85,40,NA,0,NA,NA,NA,0,3,144,8,NA,NA,1,3,-1
2013-01-29 12:55:00,"Creag Meagaidh","NN450900",-0.392812409650552,2.21427316023274,"930",40,35,"Min Window","KM","Considerable -","Considerable -","0",190,25,100,"4 - Light Showers","1",174,15,NA,0,NA,NA,NA,0,2,148,4,4,0,1,NA,-0.2
2013-01-30 12:55:00,"Creag Meagaidh","NN445868",-0.421569494613871,2.20980478413927,"920",70,35,"Creag Mhor ridge","KM","Considerable -","Considerable -","-1.6",240,25,100,"6 - Snow Showers","1",300,15,NA,0,NA,NA,NA,0,3,154,6,4,5,1,NA,-1.4
2013-01-31 13:30:00,"Creag Meagaidh","NN455877",-0.413468037140228,2.21882853664832,"870",80,36,"Bealach a Ghoire","TR","Considerable -","Considerable +","0",230,20,100,"6 - Snow Showers","1",70,30,NA,0,NA,NA,NA,0,2,160,6,NA,NA,1,3,-1.4
2013-02-01 13:05:00,"Creag Meagaidh","NN431884",-0.407216716304326,2.19712660705412,"900",45,40,"Between bases of Pumpkin & Pipes Direct","TR","Considerable +","Considerable -","-2.9",20,20,100,"8 - Snow","1",60,35,NA,0,NA,NA,NA,0,2,168,8,NA,NA,1,3,-0.7
2013-02-02 12:05:00,"Creag Meagaidh","NN444898",-0.394618685702529,2.20885368119551,"900",170,36,"Coire Chriochairein - backwall","TR & SR","Considerable +","Moderate","-4.2",340,10,10,"0 - None","1",75,20,NA,0,NA,NA,NA,0,2,168,0,NA,NA,1,3,-2.5
2013-02-03 12:45:00,"Creag Meagaidh","NN462903",-0.390098165163456,2.22511366343257,"910",60,35,"Carn Liath: West ridge","KM","High","Considerable +","-0.2",240,20,100,"4 - Light Showers","1",242,15,NA,0,NA,NA,NA,0,2,174,6,6,5,1,NA,-0.8
2013-02-04 13:00:00,"Creag Meagaidh","NN454881",-0.409875926973458,2.21791842210714,"840",90,40,"Bealach a' Ghoire","KM","High","High","-3.8",240,25,100,"8 - Snow","1",197,25,NA,0,NA,NA,NA,0,2,182,8,6,5,1,NA,-3.8
2013-02-05 13:00:00,"Creag Meagaidh","NN462898",-0.394590219158853,2.22512165413581,"770",140,30,"Balloon Gully - base","TR","High","Considerable +","-0.7",300,30,100,"10 - Heavy Snow","1",80,40,NA,0,NA,NA,NA,0,1,192,10,NA,NA,1,4,-0.7
2013-02-06 12:45:00,"Creag Meagaidh","NN443896",-0.396417066499975,2.20795307258278,"860",145,35,"Coire Chriochairein","TR & SR","Considerable -","Considerable -","-3.9",360,15,70,"6 - Snow Showers","1",90,23,NA,0,NA,NA,NA,0,2,198,6,NA,NA,1,3,-4.5
2013-02-07 13:30:00,"Creag Meagaidh","NN431865",-0.424286520064604,2.19715632119266,"810",80,30,"Lochan Coire Choillr-rais","WS /AS","Considerable -","Considerable -","-2.8",300,5,80,"2 - Trace","0",80,18,NA,0,NA,NA,NA,0,2,200,2,NA,NA,1,NA,NA
2013-02-08 12:05:00,"Creag Meagaidh","NN442894",-0.398215447068488,2.2070524591836,"880",100,31,"Coire Chriochairein. Lifa Gully","TR","Considerable -","Considerable -","-3",270,15,90,"4 - Light Showers","1",60,37,NA,0,NA,NA,NA,0,3,204,4,6,NA,1,3,-1.9
2013-02-09 11:30:00,"Creag Meagaidh","NN458897",-0.395494973711319,2.22150814327675,"800",110,30,"Cairn Liath","WS","Moderate","Moderate","0.8",220,2,80,"","0",40,10,NA,0,NA,NA,NA,0,2,204,NA,NA,NA,NA,NA,NA
2013-02-10 11:30:00,"Creag Meagaidh","NN458884",-0.407174369670313,2.22152881405228,"800",120,30,"Sron a Ghoire","WS","Considerable -","Considerable -","-2.5",165,30,100,"4 - Light Showers","1",48,5,NA,0,NA,NA,NA,0,4,204,4,NA,NA,1,NA,NA
2013-02-11 13:10:00,"Creag Meagaidh","NN452882",-0.408980653829681,2.21610926629784,"870",355,32,"NE flank Sron a Ghoire","TR","Considerable -","Moderate","-4",160,25,75,"4 - Light Showers","1",60,43,NA,0,NA,NA,NA,0,3,208,4,6,10,1,3,-4.3
2013-02-12 11:45:00,"Creag Meagaidh","NN444894",-0.398212301377933,2.20886001716584,"800",70,26,"Coire Chriochairein","TR","Considerable +","Considerable -","-3.8",180,10,60,"0 - None","1",65,12,NA,0,NA,NA,NA,0,4,208,0,6,NA,1,2,-5
2013-02-13 12:00:00,"Creag Meagaidh","NN518928",-0.367547309327625,2.27568385360449,"750",320,30,"Carn Dubh","WS","Considerable +","Considerable -","-1.8",170,30,100,"6 - Snow Showers","1",50,20,NA,0,NA,NA,NA,0,2,214,6,NA,NA,1,NA,NA
2013-02-14 12:00:00,"Creag Meagaidh","NN458882",-0.408971209478048,2.22153198594833,"800",40,30,"Sron a Ghoire NE Gullies","WS /SA","Considerable -","Moderate","-5",270,25,90,"4 - Light Showers","0",140,10,NA,1,NA,NA,NA,0,1,218,4,NA,NA,NA,NA,NA
2013-02-15 13:30:00,"Creag Meagaidh","NN448897",-0.395510783019325,2.21247037404101,"890",96,34,"Wall Gully, Coire Chriochairein","TR","Moderate","Moderate","0.6",270,10,80,"2 - Trace","0",80,16,NA,1,NA,NA,NA,0,2,220,2,NA,NA,2,2,-0.2
2013-02-16 13:00:00,"Creag Meagaidh","NN435887",-0.404515254853687,2.20073703203407,"800",140,28,"Coire Ardair","WS","Moderate","Moderate","2.5",220,5,100,"0 - None","0",50,12,NA,0,NA,NA,NA,0,1,220,NA,NA,NA,2,NA,NA
2013-02-17 13:00:00,"Creag Meagaidh","NN448895",-0.397307595195466,2.21247354721599,"800",160,28,"Coire a Chriochairein","WS","Moderate","Low","2.8",220,35,5,"2 - Trace","0",60,12,NA,0,NA,NA,NA,0,2,222,2,8,NA,2,NA,NA
2013-02-18 13:45:00,"Creag Meagaidh","NN428885",-0.406322989853411,2.19441368279016,"900",90,31,"The Window, Inner Coire","TR","Low","Low","1.3",180,5,0,"0 - None","0",60,1,NA,0,NA,NA,NA,0,1,222,NA,NA,NA,1,1,-1.7
2013-02-19 13:00:00,"Creag Meagaidh","NN435858",-0.430569265468694,2.20078242838573,"900",140,28,"Meall Coire Choile Rais","TR","Low","Low","3",180,3,0,"0 - None","0",60,6,NA,0,NA,NA,NA,0,2,222,NA,NA,NA,2,1,-0.8
2013-02-20 12:35:00,"Creag Meagaidh","NN452872",-0.41796485873917,2.21612505421467,"790",170,25,"Coire Chomharsain","TR","Low","Low","0",170,15,100,"0 - None","0",83,2,NA,0,NA,NA,NA,0,1,222,0,NA,NA,1,1,-1
2013-02-21 13:05:00,"Creag Meagaidh","NN462898",-0.394590219158853,2.22512165413581,"750",160,33,"Balloon Gully. Coire Ardair","TR","Low","Low","0",145,20,50,"","0",90,18,NA,0,NA,NA,NA,0,2,222,NA,NA,NA,1,1,-0.2
2013-02-22 12:30:00,"Creag Meagaidh","NN454883",-0.408079090236207,2.2179152564724,"740",2,37,"NE flank of Sron a Ghoire","TR","Low","Low","-4.3",180,5,60,"0 - None","0",73,2,NA,0,NA,NA,NA,0,1,222,0,8,NA,1,1,-3
2013-02-23 11:50:00,"Creag Meagaidh","NN508925",-0.37025893676802,2.26665122175364,"800",330,34,"Coire a Bhein","AC & TR","Low","Low","-1.7",180,5,98,"2 - Trace","0",90,1,NA,0,NA,NA,NA,0,4,224,2,8,5,1,1,-3.2
2013-02-24 12:05:00,"Creag Meagaidh","NN455877",-0.413468037140228,2.21882853664832,"800",70,31,"Bealach a Ghoire","TR","Low","Low","-3",180,5,100,"0 - None","0",87,1,NA,0,NA,NA,NA,0,1,224,0,8,NA,0,1,-3.9
2013-02-25 12:50:00,"Creag Meagaidh","NN432880",-0.410808782081565,2.19803666711289,"800",5,32,"Easy Gully nr.  Last Post","AC & TR","Low","Low","-0.5",180,5,0,"0 - None","0",56,1,NA,0,NA,NA,NA,0,0,224,NA,8,NA,0,1,-4.6
2013-02-26 13:10:00,"Creag Meagaidh","NN437857",-0.431464592531381,2.20259159144885,"820",120,30,"Meall Coire Choile Rais","TR","Low","Low","2",180,5,0,"0 - None","0",71,4,NA,0,NA,NA,NA,0,2,224,NA,8,NA,1,1,-1
2013-02-27 12:35:00,"Creag Meagaidh","NN420856",-0.432389249459511,2.1872284875578,"890",305,32,"NW flank of  An Cearcallach","TR","Low","Low","1",270,5,0,"","0",65,1,NA,0,NA,NA,NA,0,2,224,NA,NA,NA,0,1,-2.8
2013-02-28 12:05:00,"Creag Meagaidh","NN443894",-0.398213874545906,2.20795623818079,"810",80,28,"Coire Chriochairein","TR","Low","Low","3.1",360,10,100,"","0",110,4,NA,1,NA,NA,NA,0,1,224,NA,NA,NA,1,1,-0.8
2013-03-01 11:50:00,"Creag Meagaidh","NN455882",-0.40897593454623,2.21882062617796,"810",5,33,"Death Gullies. NE flank of Sron a Ghoire","TR","Low","Low","0",5,5,20,"","0",62,3,NA,0,NA,NA,NA,0,1,224,0,10,NA,1,1,-1.8
2013-03-02 13:30:00,"Creag Meagaidh","NN473900",-0.392775884277025,2.23505998228345,"900",134,24,"Coire Chrannaig","TR","Low","Low","2.2",270,5,80,"0 - None","0",68,6,NA,1,NA,NA,NA,0,2,224,NA,10,NA,2,1,0
2013-03-03 13:00:00,"Creag Meagaidh","NN436858",-0.430567716903156,2.2016862306609,"920",100,36,"Meall Coire Choile Rais","TR","Low","Low","0.7",270,10,100,"2 - Trace","0",84,6,NA,1,NA,NA,NA,0,1,226,2,10,NA,3,1,1
2013-03-04 13:30:00,"Creag Meagaidh","NN428884",-0.407221392543612,2.19441525017583,"900",60,39,"Base of Cinderella, Inner Coire, Coire Ardair","TR","Low","Low","-1",180,5,95,"0 - None","0",100,2,NA,0,NA,NA,NA,0,3,226,NA,NA,NA,0,1,-0.5
2013-03-05 13:15:00,"Creag Meagaidh","NN432877",-0.413504008183533,2.19804136726001,"1000",30,40,"Top of Easy Gully","KM","Low","Low","-2",80,5,100,"0 - None","0",NA,1,NA,0,NA,NA,NA,0,2,226,0,10,0,1,NA,-0.6
2013-03-06 12:45:00,"Creag Meagaidh","NN434861",-0.427875547588723,2.19987395302752,"1000",130,25,"Meall Coire Choille-rais","KM","Low","Low","-1.8",90,15,100,"0 - None","0",170,0,NA,0,NA,NA,NA,0,2,226,0,10,0,1,NA,-1.1
2013-03-07 15:21:00,"Creag Meagaidh","NN452897",-0.395504467049049,2.21608548188162,"800",100,30,"Coire a Chriochairein","WS","Moderate","Low","1.1",145,20,100,"","0",80,2,NA,0,NA,NA,NA,0,4,226,NA,NA,NA,1,NA,NA
2013-03-08 13:15:00,"Creag Meagaidh","NN462903",-0.390098165163456,2.22511366343257,"920",330,30,"Cairn Liath, Sharks Gultch","WS","Moderate","Moderate","-1.7",160,30,100,"2 - Trace","1",80,5,NA,0,NA,NA,NA,0,2,228,2,NA,NA,NA,NA,NA
2013-03-09 11:00:00,"Creag Meagaidh","NN455883",-0.408077515954785,2.2188190424412,"800",30,30,"NE Gullies. Sron a Ghoire","WS","Moderate","Moderate","-1.8",120,20,100,"4 - Light Showers","1",68,17,NA,0,NA,NA,NA,0,2,232,4,10,NA,1,2,-1.3
2013-03-10 12:00:00,"Creag Meagaidh","NN453899",-0.393706071416693,2.21698607696071,"820",240,30,"Min Window","WS","Moderate","Moderate","-4.8",45,30,5,"2 - Trace","1",60,8,NA,0,NA,NA,NA,0,1,234,2,NA,NA,1,NA,NA
2013-03-11 13:15:00,"Creag Meagaidh","NN454880",-0.41077434630598,2.2179200041035,"800",260,28,"Sron a Ghoire","TR & SR","Moderate","Low","-9",70,20,20,"2 - Trace","1",50,3,NA,0,NA,NA,NA,0,4,236,2,NA,NA,0,2,-4.2
2013-03-12 13:15:00,"Creag Meagaidh","NN473895",-0.397267978058409,2.23506800044961,"830",160,30,"Cairn Liath, Sheperds Crook","WS","Moderate","Moderate","-0.5",350,15,100,"2 - Trace","0",60,2,NA,0,NA,NA,NA,0,2,238,2,10,NA,1,NA,NA
2013-03-13 13:00:00,"Creag Meagaidh","NN447897",-0.395512360396719,2.21156659705043,"870",240,30,"Coire a Chriochairein, Boundary Wall Gully","WS","Considerable -","Moderate","-2.2",20,15,20,"4 - Light Showers","1",160,20,NA,0,NA,NA,NA,0,3,242,4,NA,NA,1,NA,NA
2013-03-14 13:30:00,"Creag Meagaidh","NN454884",-0.407180672831922,2.21791367283403,"800",40,30,"Sron a Ghoire, NE Gullies","WS","Considerable +","Considerable +","1.5",250,10,100,"","1",NA,8,NA,0,NA,NA,NA,0,2,244,2,10,NA,1,NA,-0.8
2013-03-15 13:05:00,"Creag Meagaidh","NN463903",-0.390096574819218,2.22601743634231,"930",5,45,"Shark's Fin Gully","TR & SR","Considerable +","Considerable +","-0.5",220,15,75,"6 - Snow Showers","1",70,50,NA,0,NA,NA,NA,0,4,250,6,10,10,1,3,-0.6
2013-03-16 16:41:00,"Creag Meagaidh","NN451876",-0.414372737624496,2.21521495509005,"960",38,27,"Summit slopes. Sron a Ghoire","TR & SR","Considerable +","Considerable +","-2.7",40,25,100,"6 - Snow Showers","1",78,40,NA,0,NA,NA,NA,0,4,256,6,12,NA,0,3,-3.8
2013-03-17 13:20:00,"Creag Meagaidh","NN444897",-0.395517088652512,2.2088552660057,"900",140,31,"Coire Chriochairein - backwall","TR & SR","High","Considerable +","-0.8",140,7,100,"6 - Snow Showers","1",50,12,NA,0,NA,NA,NA,0,3,262,6,12,NA,1,3,-0.6
2013-03-18 12:55:00,"Creag Meagaidh","NN459899",-0.39369656766852,2.22240873049244,"880",250,29,"Top of Triple Burns. Coire Ardair","TR & SR","High","High","-3.8",90,40,100,"6 - Snow Showers","1",90,35,NA,0,NA,NA,NA,0,2,270,8,NA,5,0,3,-3.7
2013-03-19 12:40:00,"Creag Meagaidh","NN460900",-0.392796571092777,2.22331090974578,"850",240,32,"Triple Burns, Coire Ardair","TR & SR","High","Considerable +","-3.1",100,20,90,"6 - Snow Showers","1",80,55,NA,0,NA,NA,NA,0,4,276,6,NA,10,0,4,-4
2013-03-20 13:35:00,"Creag Meagaidh","NN387842",-0.445017292881806,2.15742426548875,"940",230,30,"Beinn a Chaorainn","TR & SR","Considerable +","Considerable +","-3.8",100,25,75,"4 - Light Showers","1",72,48,NA,0,NA,NA,NA,0,4,280,4,NA,10,0,3,-3.7
2013-03-21 13:35:00,"Creag Meagaidh","NN463903",-0.390096574819218,2.22601743634231,"930",296,32,"Shark's Fin Gully. Carn Liath plateau","TR & SR","Considerable +","Considerable +","-4.1",120,40,80,"2 - Trace","1",60,40,NA,0,NA,NA,NA,0,4,282,2,NA,10,0,3,-4.4
2013-03-22 12:35:00,"Creag Meagaidh","NN454884",-0.407180672831922,2.21791367283403,"720",300,24,"NE flank of Sron a Ghoire","TR & SR","Considerable +","Considerable -","-3.1",135,65,100,"4 - Light Showers","1",47,40,NA,0,NA,NA,NA,0,3,286,4,12,NA,0,NA,-3.9
2013-03-23 13:10:00,"Creag Meagaidh","NN446877",-0.413482153187681,2.21069442765225,"950",270,35,"Coire na Gamhna","KM","Considerable +","Considerable -","-5.8",120,30,100,"4 - Light Showers","1",126,25,NA,0,NA,NA,NA,0,2,290,4,12,10,1,NA,-6.2
2013-03-24 12:45:00,"Creag Meagaidh","NN454881",-0.409875926973458,2.21791842210714,"840",310,30,"Bealach a' Ghoire","KM","Considerable -","Considerable +","-5.5",140,25,100,"4 - Light Showers","1",139,20,NA,0,NA,NA,NA,0,2,294,4,12,10,1,NA,-6.7
2013-03-25 12:45:00,"Creag Meagaidh","NN425881",-0.409921270081467,2.19170858628555,"1000",280,30,"East of Lochan Uaine","KM","Considerable +","Considerable -","-5.2",90,25,70,"0 - None","1",88,20,NA,0,NA,NA,NA,0,2,294,0,12,10,1,NA,-6.1
2013-03-26 12:45:00,"Creag Meagaidh","NN432868",-0.421589721111421,2.19805543840979,"910",265,24,"Meall Coire Choile Rais - W flank","TR","Considerable -","Considerable -","-3.2",95,25,90,"4 - Light Showers","1",120,40,NA,0,NA,NA,NA,0,4,298,4,NA,10,0,3,-3.6
2013-03-27 13:30:00,"Creag Meagaidh","NN416851",-0.436887475215926,2.18362098712871,"800",220,29,"Moy Corrie","TR","Considerable -","Considerable -","-2.2",90,15,50,"2 - Trace","1",45,35,NA,0,NA,NA,NA,0,3,300,2,NA,10,1,NA,-3.6
2013-03-28 13:20:00,"Creag Meagaidh","NN426883",-0.408122909077949,2.19260924441562,"1050",270,30,"W.facing scarp above Lochan Uaine","TR","Considerable -","Considerable -","-4.2",90,20,20,"2 - Trace","1",40,35,NA,0,NA,NA,NA,0,4,302,2,12,10,0,3,-5.7
2013-03-29 10:50:00,"Creag Meagaidh","NN444865",-0.42426632295925,2.20890569212263,"820",220,28,"Coire Choile Rais","TR","Considerable -","Considerable -","-2.2",90,10,70,"0 - None","0",70,30,NA,0,NA,NA,NA,0,3,302,NA,12,10,1,NA,-3.5
